"id","name_en","name_ar","name_he","slug","district_1945","subdistrict_1945","district_isr","type_special","pop_1922","pop_1931","type_1945","grp_1945","pop_1945","pal_1945","jsh_1945","change_2016","type_2016","grp_2016","pop_2016","pal_2016","jsh_2016","oth_2016","start","end","lat","lng","map_20k","id_zo","id_pr","id_as","id_old","id_pq","url_pr","url_pq_en","url_pq_ar","notes"
"1","Ayn Hawd","عين حوض","עין חוֹדֿ","ayn-hawd","Haifa","Haifa","","","350","459","Village","Palestinian","650","650","","Appropriated","Settlement","Jewish","600","","600","","","1948-07-15","32.701451","34.980151","no","49423","991","310","2437","918","Haifa/Ayn-Hawd","","",""
"2","al-Mazar","المزار","אלמַזַאר","al-mazar-haifa","Haifa","Haifa","","","134","2160","Village","Palestinian","210","210","","Depopulated","","","","","","","","1948-07-01","32.682109","34.966578","yes","49257","1048","311","2438","938","Haifa/al-Mazar","16851/al-mazar","21605/المزار",""
"3","Jaba'","جبع","גַ'בַּע","jaba-haifa","Haifa","Haifa","Haifa","","523","762","Village","Palestinian","1140","1140","","Depopulated","","","","","","","","1948-07-26","32.654305","34.963270","yes","49081","2932","318","2439","925","Haifa/Jaba%27","17017/jaba","21528/جبع",""
"4","Ijzim","إجزم","אִג'זִם","ijzim","Haifa","Haifa","","","1610","2160","Village","Palestinian","2970","2970","","Built over","","","","","","","","1948-07-26","32.645218","34.989649","yes","48978","1189","317","2440","923","Haifa/Ijzim","17008/ijzim","21513/إجزم",""
"5","Ayn Ghazal","عين غزال","עֵין עַ'זַאל","ayn-ghazal","Haifa","Haifa","","","1046","1439","Village","Palestinian","2170","2170","","Depopulated","","","","","","","","1948-07-26","32.632538","34.968212","yes","49381","604","316","2441","917","Haifa/Ayn-Ghazal","","",""
"6","Arab al-Samniyya","عرب السمنية","כּפְר לַאם","kafr-lam","Galilee","Acre","","","","215","Village","Palestinian","340","340","","Built over","","","","","","","","1948-07-16","32.637142","34.934072","yes","49236","1258","312","2442","38","Haifa/Kafr-Lam","16917/arab-al-samniyya","22211/عرب-السمنية",""
"7","al-Sarafand","الصرفند","","al-sarafand","Haifa","Haifa","","","204","188","Village","Palestinian","290","290","","Depopulated","","","","","","","","1948-07-16","32.647416","34.936005","yes","49365","1553","313","2443","945","Haifa/al-Sarafand","16883/al-sarafand","21562/الصرفند",""
"8","al-Tantura","الطنطورة","אלטַנְטוּרָה","al-tantura","Haifa","Haifa","","","750","953","Village","Palestinian","1490","1490","","Built over","","","","","","","","1948-05-23","32.609400","34.917400","yes","55025","1634","308","2444","947","Haifa/al-Tantura","16895/al-tantura","21564/الطنطورة",""
"9","Furreidis","عين غزال","פוריידיס","furreidis","Haifa","Haifa","Haifa","","355","454","Village","Palestinian","780","780","","Remaining","Village","Palestinian","12600","12600","","","","","32.596359","34.951237","yes","","1139","","2445","920","GeoPoints/Fureidis_1139","","",""
"10","Meir Shefeiya","ماير شفيا","מאיר שפיה","meir-shefeya","Haifa","Haifa","Haifa","","","","Settlement","Jewish","330","","330","Remaining","Settlement","Jewish","300","","200","100","1923","","32.589685","34.972577","yes","","1838","","2446","964","","","",""
"11","Khirbat al-Damun","خربة الدامون","ח'רבּת אלדאמוּן","khirbat-al-damun","Haifa","Haifa","","","","","Village","Palestinian","340","340","","Built over","","","","","","","","1948-04-30","32.733100","35.022868","yes","49125","1309","292","2447","934","Haifa/al-Damun,-Khirbat","17049/khirbat-al-damun","21533/خربة-الدامون",""
"12","Isfiya","عسفيا","","isfiya","Haifa","Haifa","Haifa","","733","1105","Village","Palestinian","1790","1790","","Remaining","Village","Palestinian","11800","11800","","","","","32.718901","35.066325","yes","","1522","","2448","924","GeoPoints/_Isfiya_1522","","",""
"13","Daliyat al-Karmil","دالية الكرمل","","daliyat-al-karmil","Haifa","Haifa","Haifa","","","","Village","Palestinian","2060","2060","","Remaining","Village","Palestinian","17000","17000","","","","","32.696013","35.043039","yes","","937","","2449","915","GeoPoints/Daliyat_al_Carmel_937","","",""
"14","Khirbat al-Mansura","خربة المنصورة","ח'רבּת אלמַנְסֿוּרה","khirbat-al-mansura","Haifa","Haifa","","","","","Village","Palestinian","220","220","","Depopulated","","","","","","","","1948-05-01","32.675678","35.100521","yes","49265","1397","290","2450","915","GeoPoints/al_Mansura_1397","","",""
"15","al-Jalama","الجلمة","אלגַ'לַמֶה","al-jalama-haifa","Haifa","Haifa","","","","","Village","Palestinian","","","","Built over","","","","","","","","1948-05-05","32.722979","35.090569","yes","49085","720","296","2451","924","Haifa/al-Jalama","","",""
"16","Kefar Hasidim Alef","كفار حاسيديم ا","כפר חסידים א'","kefar-hasidim-alef","Haifa","Haifa","Haifa","","","","Settlement","Jewish","980","","980","Remaining","Settlement","Jewish","800","","800","","1924","","32.751491","35.092595","yes","","1816","","2452","932","","","",""
"17","Yajur","ياجور","","yajur","Haifa","Haifa","","","","1449","Village","Palestinian","610","610","","Depopulated","","","","","","","","1948-04-01","32.758807","35.057672","yes","49208","1696","289","2453","954","Haifa/Yajur","17176/yajur","21622/ياجور",""
"18","Bet She'arim","","בית שערים","bet-shearim","Haifa","Haifa","Northern","","","","Settlement","Jewish","330","","330","Remaining","Settlement","Jewish","800","","800","","1936","","32.696690","35.178210","yes","","1744","","2454","970","","","",""
"20","Kefar Yehoshua'","كفار يهوشع","כפר יהושע","kefar-yehoshua","Haifa","Haifa","Northern","","","","Settlement","Jewish","620","","620","Remaining","Settlement","Jewish","1200","","1100","100","1927","","32.680993","35.151786","yes","","1828","","2456","903","","","",""
"21","Ramat Yishai (Jeida)","جيدا","רמת ישי","ramat-yishay-jeida","Haifa","Haifa","Northern","","","","Settlement","Jewish","50","","50","Remaining","Settlement","Jewish","7600","","7500","100","1925","","32.702451","35.167066","yes","","1878","","2457","970","","","",""
"22","Sede Ya'aqov","سدي يعقوب","שדה יעקב","sede-yaaqov","Haifa","Haifa","Northern","","","","Settlement","Jewish","350","","350","Remaining","Settlement","Jewish","1100","","1100","","1927","","32.697689","35.141123","yes","","1886","","2458","978","","","",""
"23","Sha'ar HaAmakim","شاعار هاعماقيم","שער העמקים","shaar-haamaqim","Haifa","Haifa","Haifa","","","","Settlement","Jewish","360","","360","Remaining","Settlement","Jewish","700","","700","","1935","","32.722499","35.109866","yes","","1888","","2459","979","","","",""
"24","Allonim","","אלונים","allonim","Haifa","Haifa","Northern","","","","Settlement","Mixed","690","370","320","Remaining","Settlement","Jewish","500","","500","","1938","","32.720363","35.142930","yes","","2596","","2460","949","","","",""
"25","Nahalal","نحلال","נהלל","nahalal","Galilee","Nazareth","Northern","","","","Settlement","Jewish","1090","","1090","Remaining","Settlement","Jewish","800","","800","","1921","","32.690380","35.196770","yes","","2591","","2461","57","","","",""
"26","Ramat David","رامات ديفيد","רמת דוד","ramat-david","Galilee","Nazareth","Northern","","","","Settlement","Jewish","510","","510","Remaining","Settlement","Jewish","500","","500","","1926","","32.678286","35.203816","yes","","2592","","2462","94","","","",""
"27","al-Shaykh Bureik","الشيخ بريك","אלשיח' בריכ","al-sheikh-bureik","Haifa","Haifa","","","","","Village","Palestinian","","","","Depopulated","","","","","","","1920","","32.701834","35.128618","yes","49494","","","2463","977","","","",""
"28","Abu Sinan","أبو سنان","","abu-sinan","Galilee","Acre","Northern","","518","605","Village","Palestinian","820","820","","Remaining","Village","Palestinian","13500","13500","","","","","32.957494","35.171686","yes","","671","","2464","9","GeoPoints/Abu_Sinan_671","","",""
"29","Acre","عكا","עכו","acre","Galilee","Acre","Northern","1945_Urban","6420","7897","Town","Palestinian","12360","12310","50","Appropriated","City","Mixed","47800","15000","29500","3300","","1948-05-18","32.921781","35.068248","yes","49425","521","6","2465","8","Acre/Acre","","",""
"30","Amqa","عمقا","עַמְקָא","amqa-acre","Galilee","Acre","","","","894","Village","Palestinian","1240","1240","","Depopulated","","","","","","","","1948-07-10","32.978292","35.167959","yes","49400","549","13","2466","10","Acre/Amqa","16778/amqa","22212/عمقا",""
"31","Arab al-Samniyya","عرب السّمنية","עַרָבּ אלסַמְנִיָּה","arab-al-samniyya","","","","","","","Village","Palestinian","200","200","","Built over","","","","","","","","1948-05-14","33.047056","35.179054","yes","49337","1305","20","2467","","Acre/Arab-al-Samniyya","","",""
"32","Arraba","عرابة","","arraba-acre","Galilee","Acre","Northern","","984","1224","Village","Palestinian","1800","1800","","Remaining","City","Palestinian","24400","24400","","","","","32.850728","35.338329","yes","","566","","2468","11","GeoPoints/_Arraba___Buttof_566","","",""
"33","al-Bassa","البصّة","אלבַּסֿה","al-bassa","Galilee","Acre","","","","1948","Village","Mixed","3100","2950","150","Built over","","","","","","","","1948-05-14","33.078079","35.142962","yes","49033","999","2","2469","3","Acre/al-Bassa","16794/al-bassa","20683/البصّة",""
"34","Bayt Jann","بيت جن","","bayt-jann","Galilee","Acre","Northern","","902","1101","Village","Palestinian","1640","1640","","Remaining","Village","Palestinian","11600","11600","","","","","32.964909","35.381185","yes","","867","","2470","12","GeoPoints/Bayt_Jann_867","","",""
"35","Bi'na","البعنة","","bina","Galilee","Acre","Northern","","518","651","Village","Palestinian","830","830","","Remaining","Village","Palestinian","8000","8000","","","","","32.931793","35.271464","yes","","903","","2471","13","GeoPoints/Bi_na_903","","",""
"36","al-Birwa","البروة","אלבִּרְוָה","al-birwa","Galilee","Acre","","","807","996","Village","Palestinian","1460","1460","","Depopulated","","","","","","","","1948-07-15","32.905473","35.178674","yes","49015","1006","11","2472","14","Acre/al-Birwa","16798/al-birwa","20679/البروة",""
"37","Buqei'a/Peki'in","البقيعة","","buqeia","Galilee","Acre","Northern","","652","799","Village","Palestinian","990","990","","Remaining","Village","Palestinian","5700","5700","","","","","32.976642","35.335748","yes","","923","","2473","15","GeoPoints/Buqei_a_Peki_in_923","","",""
"38","al-Damun","الدامون","אלדאמוּן","al-damun","Galilee","Acre","","","727","917","Village","Palestinian","1310","1310","","Depopulated","","","","","","","","1948-07-16","32.876842","35.182290","yes","49124","985","15","2474","16","Acre/al-Damun","16802/al-damun","22204/الدامون",""
"39","Dayr al-Asad","دير الأسد","","dayr-al-asad","Galilee","Acre","Northern","","749","858","Village","Palestinian","1100","1100","","Remaining","Village","Palestinian","11900","11900","","","","","32.935260","35.270569","yes","","957","","2475","17","GeoPoints/Dayr_al_Asad_957","","",""
"40","Dayr Hanna","دير حنا","","dayr-hanna","Galilee","Acre","Northern","","429","563","Village","Palestinian","750","750","","Remaining","Village","Palestinian","9900","9900","","","","","32.862909","35.364207","yes","","965","","2476","18","GeoPoints/Dayr_Hanna_965","","",""
"41","Dayr al-Qasi","دير القاسي","דֵיר אלקאסי","dayr-al-qasi","Galilee","Acre","","","","917","Village","Palestinian","2300","2300","","Built over","","","","","","","","1948-10-30","33.034969","35.324095","yes","49111","961","18","2477","19","Acre/Dayr-al-Qasi","16976/dayr-al-qasi","22205/دير-القاسي",""
"42","al-Ghabisiyya","الغابسية","אלעַ'אבּסִיָּה","al-ghabisiyya","Galilee","Acre","","","427","470","Village","Palestinian","1240","1240","","Depopulated","","","","","","","","1948-05-21","33.000162","35.149629","yes","49385","1150","1","2478","20","Acre/al-Ghabisiyya","16811/al-ghabisiyya","22213/الغابسية",""
"43","Hanita","حانيتا","חניתה","hanita","Galilee","Acre","Northern","","","","Settlement","Jewish","240","","240","Remaining","Settlement","Jewish","700","","700","","1938","","33.087808","35.172667","yes","","2034","","2479","3","","","",""
"44","Iqrit","إقرت","אִקְרִת","iqrit","Galilee","Acre","","","","339","Village","Palestinian","490","490","","Depopulated","","","","","","","","1948-10-31","33.075565","35.275571","yes","48985","1193","22","2480","21","Acre/Iqrit","17011/iqrit","22195/إقرت",""
"45","al-Jadeida","الجديدة","","al-jadeida","Galilee","Acre","Northern","","204","","Village","Palestinian","280","280","","Remaining","Village","Palestinian","20200","20200","","","","","32.927374","35.156631","yes","","1236","","2481","23","GeoPoints/al_Jadeida_1236","","",""
"46","Jatt","جت","","jatt-acre","Galilee","Acre","Northern","","137","154","Village","Palestinian","200","200","","Remaining","Village","Palestinian","6400","6400","","","","","32.973606","35.235312","yes","","1221","","2482","22","GeoPoints/Jatt_1221","","",""
"47","Khirbat Jiddin","خربة جدين","ח'רבּת גִ'דִּין","khirbat-jiddin","Galilee","Acre","","","","","Village","Mixed","","","","Built over","","","","","","","","1948-07-01","32.994155","35.221993","yes","49074","1330","12","2483","30","Acre/Jiddin,-Khirbat","17068/khirbat-jiddin","22202/خربة-جدين",""
"48","Julis","جولس","","julis-acre","Galilee","Acre","Northern","","446","614","Village","Palestinian","820","820","","Remaining","Village","Palestinian","6200","6200","","","","","32.943627","35.187030","yes","","1240","","2484","24","GeoPoints/Julis_1240","","",""
"49","Kabul","كابول","כאבול","kabul","Galilee","Acre","Northern","","365","457","Village","Palestinian","560","560","","Remaining","Village","Palestinian","13400","13400","","","","1948-07-15","32.866501","35.213723","yes","","1245","","2485","26","Acre/Kabul","","",""
"50","Kafr 'Inan","كفر عنان","כַּפִר עִנאן","kafr-inan","Galilee","Acre","","","179","246","Village","Palestinian","360","360","","Depopulated","","","","","","","","1948-10-01","32.923074","35.419276","yes","49227","1254","27","2486","27","Acre/Kafr-%27Inan","17033/kafr-inan","22215/كفر-عنان",""
"51","Kafr Sumei","كفر سميع","","kafr-sumei","Galilee","Acre","Northern","","171","213","Village","Palestinian","300","300","","Remaining","Village","Palestinian","","","","","","","32.979364","35.306397","yes","","1272","","2487","28","GeoPoints/Kafr_Sumei_1272","","",""
"52","Kafr Yasif","كفر ياسيف","","kafr-yasif","Galilee","Acre","Northern","","870","1057","Village","Palestinian","1400","1400","","Remaining","Village","Palestinian","9700","9700","","","","","32.955262","35.165227","yes","","1275","","2488","29","GeoPoints/Kafr_Yasif_1275","","",""
"54","Kisra-Sumei","كسرا","","kisra-sumei","Galilee","Acre","Northern","","250","384","Village","Palestinian","480","480","","Remaining","Village","Palestinian","8300","8300","","","","","32.961948","35.303011","yes","","1374","","2490","32","GeoPoints/Kisra_Sumei_1374","","",""
"55","Kuwaykat","كويكات","כֻּויכַּאת","kuwaykat","Galilee","Acre","","","604","789","Village","Palestinian","1050","1050","","Built over","","","","","","","","1948-07-09","32.971051","35.147834","yes","49232","1380","14","2491","33","Acre/Kuwaykat","17083/kuwaykat","22216/كويكات",""
"56","Majd al-Kurum","مجد الكروم","מג'ד אל-כרום","majd-al-kurum","Galilee","Acre","Northern","","889","1006","Village","Palestinian","1400","1400","","Remaining","Village","Palestinian","14800","14800","","","","1948-10-29","32.920434","35.252547","yes","","1390","30","2492","34","GeoPoints/Majd_al_Kurum_1390","","",""
"57","Makr","المكر","","makr","Galilee","Acre","Northern","","281","331","Village","Palestinian","490","490","","Remaining","Village","Palestinian","","","","","","","32.934105","35.139372","yes","","1394","","2493","982","GeoPoints/Makr_1394","","","Amalgamated into larger urban area"
"58","al-Manshiyya","المنشية","אלמַנְשִיָה","al-manshiyya-acre","Galilee","Acre","","","371","460","Village","Mixed","1080","810","270","Built over","","","","","","","","1948-05-14","32.931918","35.090777","yes","49268","1396","3","2494","35","Acre/al-Manshiyya","16839/al-manshiyya","22218/المنشية",""
"59","al-Mazra'a","المزرعة","","al-mazraa","Galilee","Acre","Northern","","218","320","Village","Mixed","960","430","530","Remaining","Village","Palestinian","3700","3700","","","","","32.983836","35.098352","yes","","746","","2495","36","GeoPoints/al_Mazra_a_746","","",""
"60","Mi'ar","معار","מִעאר","miar","Galilee","Acre","","","429","543","Village","Palestinian","770","770","","Built over","","","","","","","","1948-07-18","32.875426","35.247252","yes","49249","1418","16","2496","37","Acre/Mi%27ar","17096/miar","22217/معار",""
"61","Mi'ilya","معليا","","miilya","Galilee","Acre","Northern","","442","","Village","Palestinian","900","900","","Remaining","Village","Palestinian","3100","3100","","","","","33.024447","35.260668","yes","","1419","","2497","38","GeoPoints/Mi_ilya_1419","","",""
"62","Nahf","نحف","נחף","nahf","Galilee","Acre","Northern","","818","994","Village","Palestinian","1320","1320","","Remaining","Village","Palestinian","12300","12300","","","","1948-07-15","32.935945","35.316697","yes","","1448","","2498","39","Acre/Nahf","","",""
"63","al-Nahr","النهر","אלנָהְר","al-nahr","Galilee","Acre","","","","522","Village","Palestinian","610","610","","Depopulated","","","","","","","","1948-05-21","33.005986","35.140168","yes","49311","1077","8","2499","40","Acre/al-Nahr","16865/al-nahr","22221/النهر",""
"64","al-Nahr","النهر","נהרייה","nahariyya","Galilee","Acre","Northern","","","","Settlement","Jewish","1440","","1440","Remaining","City","Jewish","53500","","48700","4800","1934","","33.007112","35.092779","yes","","1941","","2500","1","","16865/al-nahr","22221/النهر",""
"65","al-Rama","الرامة","","al-rama-acre","Galilee","Acre","Northern","","847","1142","Village","Palestinian","1690","1690","","Remaining","Village","Palestinian","7500","7500","","","","","32.938355","35.367729","yes","","1507","","2501","41","GeoPoints/al_Rama_1507","","",""
"66","al-Ruways","الرويس","אלרֻוֵיְס","al-ruways","Galilee","Acre","","","154","217","Village","Palestinian","330","330","","Depopulated","","","","","","","","1948-07-16","32.864435","35.177826","yes","49476","762","17","2502","42","Acre/al-Ruways","16874/al-ruways","22206/الرويس",""
"67","Sajur","ساجور","","sajur","Galilee","Acre","Northern","","196","254","Village","Palestinian","350","350","","Remaining","Village","Palestinian","4100","4100","","","","","32.942430","35.342274","yes","","1539","","2503","43","GeoPoints/Sajur_1539","","",""
"69","Sha'ab","شعب","שעב","shaab","Galilee","Acre","Northern","","1206","1297","Village","Palestinian","1740","1740","","Remaining","Village","Palestinian","6700","6700","","","","1948-07-18","32.888994","35.242328","yes","","1571","","2505","45","Acre/Sha%27ab","","",""
"70","Suhmata","سحماتا","סֻחמַאתַא","suhmata","Galilee","Acre","","","632","796","Village","Palestinian","1130","1130","","Depopulated","","","","","","","","1948-10-30","33.006181","35.303100","yes","49348","1615","21","2506","46","Acre/Suhmata","17152/suhmata","22208/سحماتا",""
"71","al-Sumayriyya","السميرية","אלסֻמַיְרִיָּה","al-sumayriyya","Galilee","Acre","","","","391","Village","Palestinian","760","760","","Depopulated","","","","","","","","1948-05-14","32.972370","35.093259","yes","49349","1102","4","2507","47","Acre/al-Sumayriyya","16892/al-sumayriyya","22210/السميرية",""
"72","Tamra","طمرة","","tamra-acre","Galilee","Acre","Northern","","1111","1258","Village","Palestinian","1830","1830","","Remaining","City","Palestinian","32800","32800","","","","","32.850966","35.206318","yes","","1632","","2508","48","GeoPoints/Tamra_1632","","",""
"73","Tarbikha","تربيخا","תַרְבּיחָ'א","tarbikha","Galilee","Acre","","","","674","Village","Palestinian","1000","1000","","Built over","","","","","","","","1948-10-31","33.083067","35.285125","yes","49503","1635","26","2509","49","Acre/Tarbikha","17159/tarbikha","22200/تربيخا",""
"74","Tarshiha","ترشيحا","תרשיחא","tarshiha","Galilee","Acre","","","1880","2522","Village","Palestinian","5360","5360","","Depopulated","","","","","","","","1948-10-30","33.010417","35.268444","yes","49508","1637","","2510","983","Acre/Tarshiha","","",""
"75","Umm al-Faraj","أم الفرج","אֻם אלפַרַג","umm-al-faraj","Galilee","Acre","","","377","415","Village","Palestinian","800","800","","Built over","","","","","","","","1948-05-21","33.005299","35.121723","yes","48995","1660","10","2511","50","Acre/Umm-al-Faraj","17164/umm-al-faraj","22196/أم-الفرج",""
"76","Yanuh","يانوح","","yanuh","Galilee","Acre","Northern","","214","306","Village","Palestinian","410","410","","Remaining","Village","Palestinian","6400","6400","","","","","32.983339","35.251491","yes","","1698","","2512","51","GeoPoints/Yanuh_1698","","",""
"77","Yirka","يركا","","yirka","Galilee","Acre","Northern","","978","1196","Village","Palestinian","1500","1500","","Remaining","Village","Palestinian","16500","16500","","","","","32.953825","35.212743","yes","","1708","","2513","52","GeoPoints/Yirka_1708","","",""
"78","al-Zib","الزيب","אלזִיבּ","al-zeeb","Galilee","Acre","","","","1059","Village","Palestinian","1910","1910","","Depopulated","","","","","","","","1948-05-14","33.047850","35.101429","yes","49145","785","5","2514","53","Acre/al-Zeeb","16904/al-zib","22207/الزيب",""
"79","Arab al-Ramisha","","","arab-al-ramisha","","","Northern","","","","Village","Palestinian","360","360","","Depopulated","","","","","","","","","","","no","","5998","","2515","","","","",""
"80","Arab al-Hujayrat","","","arab-al-hujayrat","","","Northern","","","","Village","Palestinian","","","","Depopulated","","","","","","","","","","","no","","6001","","2516","","","","",""
"81","Arab al-Mureisat","","","arab-al-mureisat","","","Northern","","","","Village","Palestinian","","","","Depopulated","","","","","","","","","","","no","","5999","","2517","","","","",""
"82","Arab al-Suweitat","","","arab-al-suweitat","","","Northern","","","","Village","Palestinian","","","","Depopulated","","","","","","","","","","","no","","6000","","2518","","","","",""
"83","Abu al-Fadl","أبو الفضل","אַבּו אל פַדְל","abu-al-fadl","Lydda","Ramle","","","","1565","Village","Palestinian","510","510","","Built over","","","","","","","","1948-06-01","31.944760","34.848101","yes","49429","611","42","2519","633","al-Ramla/Abu-al-Fadl","16782/abu-al-fadl","21657/أبو-الفضل",""
"84","Abu Shusha","أبو شوشة","אבּו שוּשָה","abu-shusha-ramle","Lydda","Ramle","","","603","627","Village","Palestinian","870","870","","Depopulated","","","","","","","","1948-05-14","31.857014","34.915620","yes","49491","670","46","2520","634","al-Ramla/Abu-Shusha","20609/abu-shusha","21655/أبو-شوشة",""
"85","Aqir","عاقر","עַאקִר","aqir","Lydda","Ramle","","","","1691","Village","Palestinian","2480","2480","","Built over","","","","","","","","1948-05-04","31.859210","34.820771","yes","49390","599","41","2521","635","al-Ramla/Aqir","16910/aqir","21749/عاقر",""
"86","Barfiliya","برفيلية","בַּרְפִילִיָּה","barfiliya","Lydda","Ramle","","","421","544","Village","Palestinian","730","730","","Depopulated","","","","","","","","1948-07-15","31.910417","34.987506","yes","49035","834","87","2522","636","al-Ramla/Barfiliya","16931/barfiliya","21665/برفيلية",""
"87","al-Barriyya","البرية","בַּרִיָּה","barriyya","Lydda","Ramle","","","295","388","Village","Palestinian","510","510","","Built over","","","","","","","","1948-06-10","31.888219","34.917496","yes","49037","696","65","2523","637","al-Ramla/al-Barriyya","16935/al-barriyya","21675/البرية",""
"88","Bashshit","بشيت","בַּשִית","bashshit","Lydda","Ramle","","","936","1125","Village","Palestinian","1620","1620","","Built over","","","","","","","","1948-05-11","31.823661","34.748555","yes","49039","901","44","2524","638","al-Ramla/Bashshit","16936/bashshit","21667/بشيت",""
"89","Beer Ya'aqov","بير يعقوب","באר יעקב","beer-yaaqov","Lydda","Ramle","Central","","","","Settlement","Jewish","450","","450","Remaining","Settlement","Jewish","20300","","19700","600","1907","","31.936126","34.835310","yes","","1749","","2525","715","","","",""
"90","Bet Hanan","","בית חנן","bet-hanan","Lydda","Ramle","Central","","","","Settlement","Jewish","690","","690","Remaining","Settlement","Jewish","600","","600","","1930","","31.935488","34.777102","yes","","1743","","2526","714","","","",""
"91","Khirbat Bayt Far","خربة بيت فار","חִ'רְבּת בֵּית פַאר","khirbat-bayt-far","Lydda","Ramle","","","28","26","Community","Palestinian","300","300","","Depopulated","","","","","","","","1948-07-01","31.800905","34.914869","yes","49005","1306","35","2527","672","al-Ramla/Bayt-Far,-Khirbat","17066/khirbat-bayt-far","21692/خربة-بيت-فار",""
"92","Bayt Jiz","بيت جيز","בּית גִ'יז","bayt-jiz","Lydda","Ramle","","","203","370","Village","Palestinian","550","550","","Depopulated","","","","","","","","1948-05-27","31.813151","34.953110","yes","49056","870","55","2528","639","al-Ramla/Bayt-Jiz","16955/bayt-jiz","21669/بيت-جيز",""
"93","Bayt Nabala","بيت نبالا","בֵּית נַבַּאלַא","bayt-nabala","Lydda","Ramle","","","1324","1758","Village","Palestinian","2310","2310","","Depopulated","","","","","","","","1948-07-12","31.986024","34.956388","yes","49020","877","45","2529","640","al-Ramla/Bayt-Nabala","16944/bayt-nabala","21677/بيت-نبالا",""
"94","Bayt Nuba & 'Ajanjul","عجنجول","בית נּוּבא","bayt-nuba","Lydda","Ramle","","","839","944","Village","Palestinian","1240","1240","","Depopulated","","","","","","","","1967-06-06","31.852916","35.032651","yes","52878","880","","2530","641","al-Ramla/Bayt-Nuba","16786/ajanjul","21753/عجنجول",""
"95","Bet 'Oved","بيت عوفيد","בית עובד","bet-oved","Lydda","Ramle","Central","","","","Settlement","Jewish","550","","550","Remaining","Settlement","Jewish","300","","300","","1933","","31.921676","34.772309","yes","","1750","","2531","642","","","",""
"96","Bayt Shanna","بيت شنة","בֵּית שַנָּה","bayt-shanna","Lydda","Ramle","","","","406","Village","Palestinian","210","210","","Depopulated","","","","","","","","1948-07-15","31.877426","34.987133","yes","49024","885","88","2532","643","al-Ramla/Bayt-Shanna","16953/bayt-shanna","21673/بيت-شنة",""
"97","Bayt Susin","بيت سوسين","בֵּית סוּסִין","bayt-susin","Lydda","Ramle","","","47","70","Village","Palestinian","210","210","","Depopulated","","","","","","","","1948-05-28","31.806300","34.983395","yes","49022","888","56","2533","644","al-Ramla/Bayt-Susin","16954/bayt-susin","21671/بيت-سوسين",""
"98","Ben Shemen (K.No'ar)","بيت شيمن","בן שמן (כפר נוער)","ben-shemen-knoar","Lydda","Ramle","Central","","","","Settlement","Jewish","930","","930","Remaining","Settlement","Jewish","600","","600","","1921","","31.958538","34.933937","yes","","1759","","2534","645","","","",""
"99","Bil'in","بلعين","","bilin-ramle","Lydda","Ramle","West Bank","","133","166","Village","Palestinian","210","210","","Remaining","Village","Palestinian","2177","2177","","","","","31.925976","35.071175","yes","","906","","2535","719","GeoPoints/Bil_in_906","","",""
"100","Bir Ma'in","بير معين","בִּיר מַעִין","bir-main","Lydda","Ramle","","","47","355","Village","Palestinian","510","510","","Built over","","","","","","","","1948-07-16","31.887885","35.019843","yes","49009","914","89","2536","646","al-Ramla/Bir-Ma%27in","16957/bir-main","21680/بير-معين",""
"101","Bir Salim","بيرسالم","בִּיר סַאלִם","bir-salim","Lydda","Ramle","","","","","Village","Palestinian","410","410","","Built over","","","","","","","","1948-05-01","31.926006","34.827597","yes","49010","916","43","2537","647","al-Ramla/Bir-Salim","16958/bir-salim","21678/بيرسالم",""
"102","Burdus","بدرس","","burdus","Lydda","Ramle","West Bank","","334","430","Village","Palestinian","510","510","","Remaining","Village","Palestinian","1790","1790","","","","","31.966209","34.993828","yes","","921","","2538","648","GeoPoints/Budrus_921","","",""
"103","al-Burj","البرج","אלבֻּרְג'","al-burj-ramle","Lydda","Ramle","","","344","370","Village","Palestinian","480","480","","Built over","","","","","","","","1948-07-16","31.902044","35.019679","yes","49045","1008","90","2539","649","al-Ramla/al-Burj","16799/al-burj","21663/البرج",""
"104","Khirbat al-Buwayra","خربة البويرة","חִ'רְבּת בֻּויַרָה","khirbat-buwayra","Lydda","Ramle","","","","101","Community","Palestinian","190","190","","Depopulated","","","","","","","","1948-07-15","31.873496","35.014871","yes","49042","1295","91","2540","673","al-Ramla/al-Buwayra,-Khirbat","17048/khirbat-al-buwayra","21690/خربة-البويرة",""
"105","Daniyal","دانيال","דַנִיַאל","daniyal","Lydda","Ramle","","","","284","Village","Palestinian","410","410","","Built over","","","","","","","","1948-07-10","31.931362","34.930811","yes","49120","942","66","2541","650","al-Ramla/Daniyal","16969/daniyal","21704/دانيال",""
"106","Dayr Abu Salama","دير أبو سلامة","דֵיר אַבּו סַלַאמה","dayr-abu-salama","Lydda","Ramle","","","30","","Village","Palestinian","60","60","","Depopulated","","","","","","","","1948-07-13","31.949310","34.956891","yes","49101","952","84","2542","651","al-Ramla/Dayr-Abu-Salama","16972/dayr-abu-salama","21705/دير-أبو-سلامة",""
"107","Dayr Ayyub","دير أيوب","דֵיר אַיוּבּ","dayr-ayyub","Lydda","Ramle","","","215","221","Village","Palestinian","320","320","","Depopulated","","","","","","","","1948-05-16","31.827333","35.019070","yes","49102","945","31","2543","652","al-Ramla/Dayr-Ayyub","16978/dayr-ayyub","21707/دير-أيوب",""
"108","Dayr Muhaysin","دير محيسن","דֵיר מֻחיסִן","dayr-muhaysin","Lydda","Ramle","","","","113","Village","Palestinian","460","460","","Depopulated","","","","","","","","1948-04-06","31.828385","34.933223","yes","49107","969","32","2544","653","al-Ramla/Dayr-Muhaysin","16979/dayr-muhaysin","21711/دير-محيسن",""
"109","Dayr Qadis","دير قديس","","dayr-qadis","Lydda","Ramle","West Bank","","299","368","Village","Palestinian","440","440","","Remaining","Village","Palestinian","2485","2485","","","","","31.949774","35.045937","yes","","972","","2545","720","GeoPoints/Dayr_Qaddis_972","","",""
"110","Dayr Tarif","دير طريف","דֵיר טַרִיף","dayr-tarif","Lydda","Ramle","","","836","1246","Village","Palestinian","1750","1750","","Built over","","","","","","","","1948-07-12","31.993000","34.939117","yes","49105","974","67","2546","654","al-Ramla/Dayr-Tarif","16982/dayr-tarif","21709/دير-طريف",""
"111","Khirbat al-Duhayriyya","خربة الضهيرية","","al-duhriyya","Lydda","Ramle","","","69","69","Village","Palestinian","100","100","","Depopulated","","","","","","","","1948-10-07","31.946029","34.935451","yes","","1296","68","2547","674","al-Ramla/al-Duhayriyya,-Khirbat","17050/khirbat-al-duhayriyya","21696/خربة-الضهيرية",""
"112","Gan Shelomo","","גן שלמה","gan-shelomo","Lydda","Ramle","Central","","","","Settlement","Jewish","240","","240","Remaining","Settlement","Jewish","500","","500","","1927","","31.877040","34.798770","yes","","2407","","2548","713","","","",""
"113","Gedera","غديرا","גדרה","gedera","Lydda","Ramle","Central","","","","Settlement","Jewish","970","","970","Remaining","Settlement","Jewish","26900","","26400","500","1884","","31.815192","34.775863","yes","","5864","","2549","655","","","",""
"114","Giv'at Brenner","","גבעת ברנר","givat-brenner","Lydda","Ramle","Central","","","","Settlement","Jewish","1010","","1010","Remaining","Settlement","Jewish","2700","","2600","100","1928","","31.866330","34.801410","yes","","2408","","2550","713","","","",""
"115","al-Haditha","الحديثة","אלחַדִיתָ'ה","al-haditha","Lydda","Ramle","","","415","520","Village","Palestinian","760","760","","Depopulated","","","","","","","","1948-07-12","31.962929","34.951460","yes","49177","1018","78","2551","656","al-Ramla/al-Haditha","16815/al-haditha","21688/الحديثة",""
"116","Idnibba","إدنبة","אִדְנִבָּה","idnibba","Lydda","Ramle","","","275","345","Village","Palestinian","490","490","","Depopulated","","","","","","","","1948-07-17","31.742266","34.855594","yes","48981","1186","61","2552","658","al-Ramla/Idnibba","17005/idnibba","21659/إدنبة",""
"117","Imwas","عمواس","עִמְוָּאס","imwas","Lydda","Ramle","","","824","1021","Village","Palestinian","1450","1450","","Depopulated","","","","","","","","1967-06-06","31.840461","34.992535","yes","52872","590","","2553","659","al-Ramla/Imwas","","",""
"118","Innaba","عنابة","עִנַּאבָּה","innaba","Lydda","Ramle","","","863","1135","Village","Palestinian","1420","1420","","Depopulated","","","","","","","","1948-07-10","31.902147","34.947836","yes","49376","591","69","2554","660","al-Ramla/Innaba","17010/innaba","21755/عنابة",""
"119","Jilya","جليا","גִ'לְיָא","jilya","Lydda","Ramle","","","269","271","Village","Palestinian","330","330","","Depopulated","","","","","","","","1948-07-17","31.770133","34.863722","yes","49076","1227","62","2555","661","al-Ramla/Jilya","17026/jilya","21684/جليا",""
"120","Jimzu","جمزو","גִ'מְזוּ","jimzu","Lydda","Ramle","","","898","1081","Village","Palestinian","1510","1510","","Depopulated","","","","","","","","1948-07-10","31.929847","34.946304","yes","49077","1228","70","2556","662","al-Ramla/Jimzu","17027/jimzu","21686/جمزو",""
"121","Jindus","جنداس","ג'ינדס","jindas","Lydda","Ramle","","","","","Village","Palestinian","","","","Depopulated","","","","","","","","1948-07-01","31.967826","34.906449","yes","49071","1229","80","2557","663","GeoPoints/Jindas_1229","","",""
"123","Kefar Bilu","كفار بيلو","כפר ביל""ו","kefar-bilu","Lydda","Ramle","Central","","","","Settlement","Jewish","230","","230","Remaining","Settlement","Jewish","1300","","1300","","1932","","31.877785","34.820269","yes","","3435","","2559","665","","","",""
"125","Kefar Menahem","كفار مناحيم","כפר מנחם","kefar-menahem","Lydda","Ramle","Southern","","","","Settlement","Jewish","290","","290","Remaining","Settlement","Jewish","1400","","1300","100","1937","","31.732668","34.836327","yes","","1821","","2561","666","","","",""
"126","Kefar Sirkin","كفار سيركين","כפר סירקין","kefar-sirkin","Lydda","Ramle","Central","","","","Settlement","Jewish","540","","540","Remaining","Settlement","Jewish","1400","","1400","","1936","","32.077107","34.923268","yes","","1823","","2562","667","","","",""
"127","Kefar Uriya","كفار أوريا","כפר אוריה","kefar-uriyya","Lydda","Ramle","Jerusalem","","","","Settlement","Jewish","20","","20","Remaining","Settlement","Jewish","900","","900","","1944","","31.792357","34.947861","yes","","1825","","2563","668","","","",""
"128","Khirbat al-Qubeiba","خربة القبيبة","","khirbat-al-qubeiba","Lydda","Ramle","Central","","","","Community","Palestinian","","","","Depopulated","","","","","","","","","31.946046","34.944884","yes","","1315","","2564","676","GeoPoints/Kh__al_Qubeiba_1315","","",""
"129","al-Khalayil","الخلايل","","al-khalayil","Lydda","Ramle","Central","","","","Village","Palestinian","","","","Depopulated","","","","","","","","","31.836707","34.950769","yes","","1028","","2565","669","GeoPoints/al_Khalayil_1028","","",""
"130","Kharbata","خربتا","","kharbata","Lydda","Ramle","West Bank","","338","469","Village","Palestinian","650","650","","Remaining","Village","Palestinian","3642","3642","","","","","31.944195","35.070575","yes","","1356","","2566","718","GeoPoints/Kharbata_1356","","",""
"131","Kharruba","خروبة","חַ'רּוּבָּה","kharruba","Lydda","Ramle","","","","119","Village","Palestinian","170","170","","Depopulated","","","","","","","","1948-07-10","31.913135","34.959784","yes","49175","1357","81","2567","670","al-Ramla/Kharruba","17043/kharruba","21698/خروبة",""
"132","al-Khayma","الخيمة","אלחַ'יְמָה","al-khayma","Lydda","Ramle","","","","141","Village","Palestinian","190","190","","Depopulated","","","","","","","","1948-07-01","31.762484","34.829838","yes","49172","1031","63","2568","671","al-Ramla/al-Khayma","17044/al-khayma","21702/الخيمة",""
"133","Khirbat Mismar","خربة مسمار","","khirbat-mismar","Lydda","Ramle","West Bank","","","","Community","Palestinian","","","","Abandoned","","","","","","","","","32.055539","35.004828","yes","","5650","","2569","675","GeoPoints/Kh__Mismar_5650","","",""
"134","Khulda","خلدة","חֻ'לְדַה","khulda","Lydda","Ramle","","","53","178","Village","Palestinian","280","280","","Depopulated","","","","","","","","1948-04-06","31.819502","34.903640","yes","49187","1368","33","2570","678","al-Ramla/Khulda","17079/khulda","21700/خلدة",""
"135","Hulda","حلدة","חולדה","hulda","Lydda","Ramle","Central","","","","Settlement","Jewish","260","","260","Remaining","Settlement","Jewish","1000","","1000","","1930","","31.831390","34.882580","yes","","1801","","2571","657","","","",""
"136","al-Kunayyisa","الكنيسة","אלכֻּנַיִּסָה","al-kunayyisa","Lydda","Ramle","","","","1135","Village","Palestinian","40","40","","Depopulated","","","","","","","","1948-07-10","31.888789","34.957633","yes","49233","1033","71","2572","679","al-Ramla/al-Kunayyisa","16832/al-kunayyisa","21767/الكنيسة",""
"137","al-Latrun","اللطرون","אללַטְרוּן","al-latrun","Lydda","Ramle","","","59","120","Village","Palestinian","190","190","","Depopulated","","","","","","","","1967-06-06","31.831472","34.982711","yes","49243","734","94","2573","680","al-Ramla/al-Latrun","16834/al-latrun","21769/اللطرون",""
"138","al-Lubban","اللبن","","al-lubban","Lydda","Ramle","West Bank","","221","298","Village","Palestinian","340","340","","Remaining","Village","Palestinian","1889","1889","","","","","32.033925","35.038241","yes","","1035","","2574","681","GeoPoints/al_Lubban_1035","","",""
"139","Lydda","اللد","לוד","lydda","Lydda","Ramle","Central","1945_Urban","8103","","Town","Palestinian","16780","16760","20","Appropriated","City","Mixed","73600","22100","45700","5800","","1948-07-11","31.954554","34.900155","yes","49245","214","72","2575","630","al-Ramla/al-Lydd","","",""
"140","al-Maghar","المغار","אלמַעַ'אר","al-maghar","Lydda","Ramle","","","966","1211","Village","Palestinian","1740","1740","","Depopulated","","","","","","","","1948-05-15","31.838366","34.781967","yes","49280","1037","51","2576","685","al-Ramla/al-Maghar","16835/al-maghar","21777/المغار",""
"141","Majdal Yaba","مجدل يابا","מַגְ'דַל יָאבָּא","majdal-yaba","Lydda","Ramle","","","726","966","Village","Palestinian","1520","1520","","Depopulated","","","","","","","","1948-07-13","32.081450","34.956983","yes","49254","1393","85","2577","682","al-Ramla/Majdal-Yaba","17090/majdal-yaba","21771/مجدل-يابا",""
"142","al-Mansura","المنصورة","אלמַנְסֿוּרַה","al-mansura-ramle","Lydda","Ramle","","","31","61","Village","Palestinian","90","90","","Depopulated","","","","","","","","1948-05-01","31.838008","34.856372","yes","49261","743","38","2578","683","al-Ramla/al-Mansura","16845/al-mansura","21779/المنصورة-",""
"143","Mazkeret Batyah ('Eqron)","مزكيرت بتيا","מזכרת בתיה","mazkeret-batya","Lydda","Ramle","Central","","","","Settlement","Jewish","450","","450","Remaining","Settlement","Jewish","13400","","13200","200","1883","","31.854573","34.838646","yes","","5720","","2579","716","","","",""
"144","Midya","المدية","","midya","Lydda","Ramle","West Bank","","245","286","Village","Palestinian","320","320","","Remaining","Village","Palestinian","1665","1665","","","","","31.935297","35.004867","yes","","1053","","2580","684","GeoPoints/al_Midya_1053","","",""
"145","al-Mukhayzin","المخيزن","אלמֻחַ'יזן","al-mukhayzin","Lydda","Ramle","","","","79","Village","Mixed","310","200","110","Depopulated","","","","","","","","1948-05-01","31.802348","34.810491","yes","49288","1054","39","2581","686","al-Ramla/al-Mukhayzin","16857/al-mukhayzin","21773/المخيزن",""
"146","al-Muzayri'a","المزيرعة","מֻזֵירִעָה","muzayria","Lydda","Ramle","","","578","780","Village","Palestinian","1160","1160","","Built over","","","","","","","","1948-07-16","32.049179","34.950623","yes","49287","753","82","2582","687","al-Ramla/al-Muzayri%27a","16860/al-muzayria","21775/المزيرعة",""
"147","al-Na'ani","النعاني","אלנַעַאני","al-naani","Lydda","Ramle","","","1004","1142","Village","Mixed","2060","1470","590","Depopulated","","","","","","","","1948-05-14","31.871329","34.871992","yes","49310","755","47","2583","688","al-Ramla/al-Na%27ani","16861/al-naani","21782/النعاني",""
"148","al-Nabi Rubin","النبي روبين","אלנַבִּי רוּבִּין","al-nabi-rubin-ramle","Lydda","Ramle","","","","","Village","Palestinian","1420","1420","","Depopulated","","","","","","","","1948-06-01","31.945439","34.742337","yes","49305","754","57","2584","689","al-Ramla/al-Nabi-Rubin","16862/al-nabi-rubin","21780/النبي-روبين",""
"150","Ni'lin","نعلين","","nilin","Lydda","Ramle","West Bank","","1160","1249","Village","Palestinian","1420","1420","","Remaining","Village","Palestinian","5852","5852","","","","","31.946900","35.022436","yes","","1458","","2586","691","GeoPoints/Ni_lin_1458","","",""
"151","Qatra","قطرة","קַטְרַה","qatra","Lydda","Ramle","","","640","822","Village","Palestinian","1210","1210","","Built over","","","","","","","","1948-05-06","31.821944","34.778152","yes","49450","1486","50","2587","692","al-Ramla/Qatra","17116/qatra","21763/قطرة",""
"152","Qazaza","قزازة","קַזַאזָה","qazaza","Lydda","Ramle","","","472","649","Village","Palestinian","940","940","","Depopulated","","","","","","","","1948-07-17","31.779051","34.876137","yes","49449","1488","64","2588","697","al-Ramla/Qazaza","17118/qazaza","21761/قزازة",""
"153","Qibya","قبية","","qibya","Lydda","Ramle","West Bank","","694","909","Village","Palestinian","1250","1250","","Remaining","Village","Palestinian","6272","6272","","","","","31.977559","35.010814","yes","","1489","","2589","693","GeoPoints/Qibya_1489","","",""
"154","al-Qubab","القباب","אלקֻבַּאבּ","al-qubab","Lydda","Ramle","","","1275","1502","Village","Palestinian","1980","1980","","Depopulated","","","","","","","","1948-06-06","31.866568","34.953006","yes","49458","1062","49","2590","694","al-Ramla/al-Qubab","16869/al-qubab","21757/القباب",""
"155","al-Qubayba","القبيبة","אלקֻבֵּיבַּה","al-qubayba-ramle","Lydda","Ramle","","","","799","Village","Palestinian","1720","1720","","Built over","","","","","","","","1948-05-27","31.895019","34.772664","yes","49456","1064","53","2591","695","al-Ramla/al-Qubayba","17059/al-qubayba","21759/القبيبة",""
"156","Qula","قولة","קוּלָה","qula","Lydda","Ramle","","","480","697","Village","Palestinian","1010","1010","","Depopulated","","","","","","","","1948-07-18","32.037573","34.955126","yes","49461","1493","73","2592","696","al-Ramla/Qula","17121/qula","21765/قولة",""
"157","al-Ramla","الرملة","רמלה","ramle","Lydda","Ramle","Central","1945_Urban","7312","","Town","Palestinian","15160","15160","","Appropriated","City","Mixed","75000","17300","54200","3500","","1948-07-12","31.925447","34.872346","yes","49477","530","74","2593","629","al-Ramla/al-Ramla","","",""
"158","Rantis","رنتيس","","rantis","Lydda","Ramle","West Bank","","824","954","Village","Palestinian","1280","1280","","Remaining","Village","Palestinian","3243","3243","","","","","32.027758","35.018593","yes","","1511","","2594","698","GeoPoints/Rantis_1511","","",""
"159","Rahavot","رحوبوت","רחובות","rehovot","Lydda","Ramle","Central","","","","Settlement","Mixed","10020","20","10000","Remaining","City","Jewish","135400","","128200","7200","1890","","31.895252","34.811437","yes","","1881","","2595","631","","","",""
"160","Rishon le Zion","ريشون لصيون","ראשון לציון","rishon-leziyyon","Lydda","Ramle","Central","","","","Settlement","Jewish","8100","","8100","Remaining","City","Jewish","247200","","227900","19300","1882","","31.961976","34.807615","yes","","1882","","2596","632","","","",""
"161","Sajad","سجد","סַגָ'ד","sajad","Lydda","Ramle","","","221","300","Village","Palestinian","370","370","","Depopulated","","","","","","","","1948-07-17","31.784213","34.892775","yes","49328","1568","58","2597","699","al-Ramla/Sajad","17132/sajad","21715/سجد",""
"162","Salbit","سلبيت","סַלְבִּית","salbit","Lydda","Ramle","","","296","406","Village","Palestinian","510","510","","Built over","","","","","","","","1948-07-15","31.869955","34.986693","yes","49335","1542","92","2598","700","al-Ramla/Salbit","17134/salbit","21717/سلبيت",""
"163","Sarfand al-'Amar","صرفند العمار","סֿרַפַנְד עַמַאר","sarafand-amar","Lydda","Ramle","","","862","1183","Village","Palestinian","1950","1950","","Depopulated","","","","","","","","1948-05-20","31.958073","34.849424","yes","49367","1554","52","2599","701","al-Ramla/Sarafand-al-%27Amar","17140/sarfand-al-amar","21743/صرفند-العمار",""
"164","Sarafand al-Kharab","صرفند الخراب","סֿרַפַנְד אלחַ'רַאבּ","sarafand-al-kharab","Lydda","Ramle","","","862","974","Village","Palestinian","1040","1040","","Built over","","","","","","","","1948-04-01","31.936149","34.805627","yes","49366","1555","40","2600","702","al-Ramla/Sarafand-al-Kharab","17139/sarafand-al-kharab","21741/صرفند-الخراب",""
"165","Saydun","صيدون","סֿידוּן","saydun","Lydda","Ramle","","","124","174","Village","Palestinian","210","210","","Depopulated","","","","","","","","1948-04-06","31.841523","34.904494","yes","49360","1589","34","2601","703","al-Ramla/Saydun","17143/saydun","21745/صيدون",""
"166","Shabtin","شبتين","","shabtin","Lydda","Ramle","West Bank","","63","110","Village","Palestinian","150","150","","Remaining","Village","Palestinian","1080","1080","","","","","31.972441","35.050452","yes","","1572","","2602","721","GeoPoints/Shabtin_1572","","",""
"167","Shahma","شحمة","שַחְמָה","shahma","Lydda","Ramle","","","80","150","Village","Palestinian","280","280","","Depopulated","","","","","","","","1948-05-01","31.822272","34.813442","yes","49483","1574","48","2603","704","al-Ramla/Shahma","17144/shahma","21723/شحمة",""
"168","Shilta","شلتا","שִלְתָא","shilta","Lydda","Ramle","","","","22","Village","Palestinian","100","100","","Built over","","","","","","","","1948-07-18","31.917692","35.020440","yes","49479","1580","93","2604","705","al-Ramla/Shilta","17146/shilta","21725/شلتا",""
"169","Shuqba","شقبا","","shuqba","Lydda","Ramle","West Bank","","530","696","Village","Palestinian","840","840","","Remaining","Village","Palestinian","5755","5755","","","","","31.985969","35.039255","yes","","1586","","2605","717","GeoPoints/Shuqba_1586","","",""
"170","al-Tina","التينة","אלתִינָה","al-tina","Lydda","Ramle","","","386","530","Village","Palestinian","750","750","","Depopulated","","","","","","","","1948-07-09","31.746292","34.819320","yes","49497","1109","60","2606","706","al-Ramla/al-Tina","16896/al-tina","21682/التينة",""
"171","al-Tira","الطيرة","אלטירה","al-tira-ramle","Lydda","Ramle","","","705","892","Village","Palestinian","1290","1290","","Built over","","","","","","","","1948-07-10","32.017025","34.942484","yes","49201","1112","75","2607","707","al-Ramla/al-Tira","16897/al-tira","21747/الطيرة",""
"173","Umm Kalkha","أم كلخة","אֻם כַּלְחָ'ה","umm-kalkha","Lydda","Ramle","","","","24","Village","Palestinian","60","60","","Depopulated","","","","","","","","1948-05-01","31.811844","34.854374","yes","48993","1669","36","2609","709","al-Ramla/Umm-Kalkha","17167/umm-kalkha","21661/أم-كلخة",""
"174","Wadi Hunayn","وادي حنين","וַאדִי חֻנֵין","wadi-haunayn","Lydda","Ramle","","","195","280","Village","Palestinian","1620","1620","","Built over","","","","","","","","1948-04-17","31.925829","34.791818","yes","49132","1457","37","2610","710","al-Ramla/Wadi-Hunayn","17173/wadi-hunayn","21784/وادي-حنين",""
"175","Nes Ziyyona","","נס ציונה","nes-ziyyona","Lydda","Ramle","Central","","","","Settlement","Jewish","1760","","1760","Remaining","City","Jewish","48100","","47300","800","1883","","31.926664","34.796069","yes","","2403","","2611","710","","","",""
"176","Yalu","يالو","יאלוּ","yalu","Lydda","Ramle","","","811","963","Village","Palestinian","1220","1220","","Depopulated","","","","","","","","1967-06-06","31.841917","35.023684","yes","52875","1697","","2612","711","al-Ramla/Yalu","","",""
"177","Yibna","يبنة","יִבְּנה","yibna","Lydda","Ramle","","","1891","3600","Village","Palestinian","5420","5420","","Built over","","","","","","","","1948-06-04","31.865781","34.745681","yes","49202","1707","59","2613","712","al-Ramla/Yibna","17181/yibna","20685/يبنة",""
"178","Khirbat Zakariyya","خربة زكريا","חִ'רְבּת זַכַּרִיָּא","khirbat-zakariyya","Lydda","Ramle","","","","","Community","Palestinian","","","","Depopulated","","","","","","","","1948-07-13","31.937821","34.969594","yes","49152","1349","83","2614","677","al-Ramla/Zakariyya,-Khirbat","17075/khirbat-zakariyya","21693/خربة-زكريا",""
"179","Zarnuqa","زرنوقة","זַרְנוּקָה","zarnuqa","Lydda","Ramle","","","","1952","Village","Mixed","2620","2380","240","Built over","","","","","","","","1948-05-27","31.879478","34.788925","yes","49155","1718","54","2615","713","al-Ramla/Zarnuqa","17186/zarnuqa","21713/زرنوقة",""
"181","Arab al-'Arida","عرب العريضة","עָרָבּ אלעַרִידֿה","arab-al-arida","Galilee","Beisan","","","","182","Village","Mixed","330","150","180","Depopulated","","","","","","","","1948-05-01","32.441554","35.514376","yes","49407","997","115","2617","733","Baysan/Arab-al-%27Arida","16912/arab-al-arida","21451/عرب-العريضة",""
"182","Baysan","بيسان","ביסאן","beisan","Galilee","Beisan","Northern","1945_Urban","1941","3101","Town","Mixed","5720","5180","540","Appropriated","City","Jewish","17500","","17100","400","","1948-05-12","32.498084","35.502660","yes","49061","522","100","2618","722","Baysan/Baysan","","",""
"183","Arab al-Bawati","عرب البواطي","עָרָבּ אלבַּוַּאטִי","arab-al-bawati","Galilee","Beisan","","","345","461","Village","Palestinian","520","520","","Depopulated","","","","","","","","1948-05-01","32.528257","35.540392","yes","49006","1003","109","2619","735","Baysan/Arab-al-Bawati","16913/arab-al-bawati","21447/عرب-البواطي",""
"184","Arab al-Safa","عرب الصفا","עָרָבּ אלסֿפַא","arab-al-safa","Galilee","Beisan","","","225","540","Village","Palestinian","650","650","","Depopulated","","","","","","","","1948-05-01","32.440861","35.537667","yes","49362","1088","118","2620","751","Baysan/Arab-al-Safa","16916/arab-al-safa","21449/عرب-الصفا",""
"185","al-Ashrafiyya","الأشرفية","אלאַשְרָפִיָּה","al-ashrafiyya","Galilee","Beisan","","","136","48","Village","Palestinian","230","230","","Depopulated","","","","","","","","1948-05-11","32.469968","35.471325","yes","48989","694","99","2621","725","Baysan/al-Ashrafiyya","16790/al-ashrafiyya","21205/الأشرفية",""
"187","al-Bashatiwa","البشاتوة","בַּשַאתְוֵה","bashatwi","Galilee","Beisan","","","","","Village","Palestinian","1560","1560","","Depopulated","","","","","","","","1948-05-01","32.591695","35.557965","yes","49040","5035","113","2623","734","GeoPoints/Kh__al_Mazar_5035","","",""
"188","Bet Alfa","بيت الفا","בית אלפא","bet-alfa","Galilee","Beisan","Northern","","","","Settlement","Jewish","430","","430","Remaining","Settlement","Jewish","700","","700","","1922","","32.517130","35.431450","yes","","1751","","2624","729","","","",""
"189","Bet HaShitta","بيت هاشيطة","בית השיטה","bet-hashitta","Galilee","Beisan","Northern","","","","Settlement","Jewish","590","","590","Remaining","Settlement","Jewish","1200","","1200","","1935","","32.550113","35.439344","yes","","1890","","2625","736","","","",""
"190","al-Bira","البيرة","אלבִּירָה","al-bira-beisan","Galilee","Beisan","","","200","220","Village","Palestinian","260","260","","Depopulated","","","","","","","","1948-05-01","32.607538","35.503076","yes","49011","1004","107","2626","737","Baysan/al-Bira","16797/al-bira","21419/البيرة",""
"191","Danna","دنة","דָנָּה","danna","Galilee","Beisan","","","176","149","Village","Palestinian","190","190","","Depopulated","","","","","","","","1948-05-01","32.613342","35.474975","yes","49121","940","122","2627","738","Baysan/Danna","16968/danna","21435/دنة",""
"192","En Harod (Me'uhad)","عين حرود","עין חרוד (מאוחד)","en-harod-meuhad","Galilee","Beisan","Northern","","","","Settlement","Jewish","1060","","1060","Remaining","Settlement","Jewish","700","","700","","1921","","32.558410","35.391520","yes","","1737","","2628","724","","","",""
"193","Farwana","فرونة","פַרְוָנָה","farwana","Galilee","Beisan","","","48","286","Village","Palestinian","330","330","","Built over","","","","","","","","1948-05-11","32.462777","35.493665","yes","49431","1131","98","2629","739","Baysan/Farwana","16989/farwana","21456/فرونة",""
"194","al-Fatur","الفاتور","אלפָאתוּר","al-fatur","Galilee","Beisan","","","","66","Village","Palestinian","110","110","","Depopulated","","","","","","","","1948-05-01","32.396760","35.525703","yes","49427","1013","101","2630","723","Baysan/al-Fatur","16809/al-fatur","21454/الفاتور",""
"196","Geva'","غيفع","גבע","geva","Galilee","Beisan","Northern","","","","Settlement","Jewish","380","","380","Remaining","Settlement","Jewish","600","","600","","1921","","32.566280","35.372050","yes","","1780","","2632","728","","","",""
"197","al-Ghazzawiyya","الغزاوية","אלעַ'זַּאוִּיָּה","al-ghazzawiyya","Galilee","Beisan","","","","","Village","Mixed","1640","1020","620","Depopulated","","","","","","","","1948-05-01","32.502259","35.541713","yes","49387","1017","116","2633","740","Baysan/al-Ghazzawiyya","16812/al-ghazzawiyya","21452/الغزاوية",""
"198","al-Hamidiyya","الحميدية","אלחַמִידִיָּה","al-hamidiyya","Galilee","Beisan","","","193","157","Village","Mixed","320","220","100","Depopulated","","","","","","","","1948-05-01","32.544431","35.516501","yes","49180","711","102","2634","741","Baysan/al-Hamidiyya","16816/al-hamidiyya","21426/الحميدية",""
"199","al-Hamra","الحمرا","אלחָמְרָא","al-hamra-beisan","Galilee","Beisan","","","","","Village","Palestinian","730","730","","Depopulated","","","","","","","","1948-05-01","32.427813","35.500416","yes","49179","1020","123","2635","742","Baysan/al-Hamra","16818/al-hamra","21424/الحمرا",""
"200","Heftsi Bah","حفصى باه","חפצי-בה","hefzi-bah","Galilee","Beisan","Northern","","","","Settlement","Jewish","330","","330","Remaining","Settlement","Jewish","600","","600","","1922","","32.518001","35.427078","yes","","1779","","2636","976","","","",""
"201","Jabbul","جبول","גַ'בּוּל","jabbul","Galilee","Beisan","","","231","218","Village","Mixed","420","250","170","Depopulated","","","","","","","","1948-05-01","32.567162","35.510679","yes","49082","1204","114","2637","743","Baysan/Jabbul","17018/jabbul","21423/جبول",""
"202","Jisr aql-Majami","جسر المجامع","","jisr-aql-majami","Galilee","Beisan","","","","","Village","Mixed","250","20","230","Depopulated","","Jewish","","","","","","","32.624253","35.563466","yes","","1802","","2638","761","GeoPoints/Jisr_al_Majami__1802","","",""
"203","Kafr Misr","كفر مصر","","kafr-misr","Galilee","Beisan","Northern","","253","","Village","Palestinian","330","330","","Remaining","Village","Palestinian","2600","2600","","","","","32.645723","35.423074","yes","","1262","","2639","744","GeoPoints/Kafr_Misr_1262","","",""
"204","Kafra","كفرة","כַּפְרָה","kafra","Galilee","Beisan","","","273","298","Village","Palestinian","430","430","","Depopulated","","","","","","","","1948-05-01","32.592969","35.491790","yes","49224","1277","110","2640","745","Baysan/Kafra","17037/kafra","21460/كفرة",""
"205","Kawkab al-Hawa","كوكب الهوا","כַּווּכָּבּ אלהַוָא","kawkab-al-hawa","Galilee","Beisan","","","167","220","Village","Palestinian","300","300","","Depopulated","","","","","","","","1948-05-16","32.595634","35.521493","yes","49217","1287","111","2641","746","Baysan/Kawkab-al-Hawa","17041/kawkab-al-hawa","21462/كوكب-الهوا",""
"206","Kefar Yehtzhaq","كفار يحزقيل","כפר יחזקאל","kefar-yehezqel","Galilee","Beisan","Northern","","","","Settlement","Jewish","430","","430","Remaining","Settlement","Jewish","1100","","1100","","1921","","32.568196","35.362483","yes","","1827","","2642","731","","","",""
"207","al-Khunayzir","الخنيزير","אלחֻ'ניזִיר","al-khunayzir","Galilee","Beisan","","","83","200","Village","Palestinian","260","260","","Depopulated","","","","","","","","1948-05-01","32.420576","35.522174","yes","49188","1032","117","2643","747","Baysan/al-Khunayzir","16831/al-khunayzir","21433/الخنيزير",""
"208","Masil al-Jizl","مسيل الجزل","מַסִיל אלגִ'זְל","masil-al-jizl","Galilee","Beisan","","","","197","Community","Mixed","280","100","180","Depopulated","","","","","","","","1948-05-01","32.455550","35.557797","yes","49277","1406","124","2644","748","Baysan/Masil-al-Jizl","17095/masil-al-jizl","21466/مسيل-الجزل",""
"209","al-Murassas","المرصص","אלמֻרַסֿסֿ","al-murassas","Galilee","Beisan","","","312","381","Village","Palestinian","460","460","","Depopulated","","","","","","","","1948-05-01","32.559590","35.475834","yes","49297","1059","108","2645","749","Baysan/al-Murassas","16858/al-murassas","21464/المرصص",""
"210","Qumya","قومية","קוּמְיָה","qumya","Galilee","Beisan","","","405","386","Village","Palestinian","440","440","","Built over","","","","","","","","1948-03-01","32.565374","35.394997","yes","49462","506","95","2646","750","Baysan/Qumya","17122/qumya","21458/قومية",""
"211","al-Sakhina","الساخنة","אלסאחִ'נה","al-sakhina","Galilee","Beisan","","","","374","Village","Mixed","820","530","290","Depopulated","","","","","","","","1948-05-01","32.512864","35.461952","yes","49369","1089","103","2647","752","Baysan/al-Sakhina","16876/al-sakhina","21439/الساخنة",""
"212","al-Samiriyya","السامرية","אלסַאמִרִיָה","al-samiriyya","Galilee","Beisan","","","162","181","Village","Palestinian","250","250","","Built over","","","","","","","","1948-05-01","32.436938","35.486664","yes","49323","1092","121","2648","753","Baysan/al-Samiriyya","16879/al-samiriyya","21441/السامرية",""
"213","Sirin","سيرين","סִירִין","sirin","Galilee","Beisan","","","581","630","Village","Palestinian","810","810","","Depopulated","","","","","","","","1948-05-12","32.653588","35.504816","yes","49319","1597","96","2649","754","Baysan/Sirin","17149/sirin","21443/سيرين",""
"214","al-Tayyiba","الطيبة","","al-tayyiba-beisan","Galilee","Beisan","Northern","","220","","Village","Mixed","430","280","150","Remaining","Village","Palestinian","1800","1800","","","","","32.604402","35.445371","yes","","815","","2650","755","GeoPoints/al_Taiyiba_815","","",""
"215","Tall al-Shawk","تل الشوك","תל אלשָוְּכּ","tall-al-shawk","Galilee","Beisan","","","58","41","Community","Palestinian","120","120","","Depopulated","","","","","","","","1948-05-01","32.495309","35.463708","yes","49506","1646","104","2651","756","Baysan/Tall-al-Shawk","17157/tall-al-shawk","21421/تل-الشوك",""
"216","Tel Yosef","تل يوسيف","תל יוסף","tel-yosef","Galilee","Beisan","Northern","","","","Settlement","Jewish","690","","690","Remaining","Settlement","Jewish","600","","500","100","1921","","32.556230","35.399610","yes","","1899","","2652","732","","","",""
"217","al-Tira","الطيرة","אלטִירָה","al-tira-beisan","Galilee","Beisan","","","130","108","Village","Mixed","200","150","50","Depopulated","","","","","","","","1948-04-01","32.648424","35.458170","yes","49194","1110","97","2653","757","Baysan/al-Tira","16898/al-tira","21445/الطيرة",""
"218","Tirat Zevi","","טירת צבי","tirat-zevi","Galilee","Beisan","Northern","","","","Settlement","Jewish","290","","290","Remaining","Settlement","Jewish","800","","800","","1937","","32.421802","35.527687","yes","","1901","","2654","726","","","",""
"219","Umm 'Ajra","أم عجرة","אֻם עַגְ'רָא","umm-ajra","Galilee","Beisan","","","86","242","Community","Palestinian","260","260","","Depopulated","","","","","","","","1948-05-01","32.463412","35.523041","yes","48994","1659","125","2655","758","Baysan/Umm-%27Ajra","17163/umm-ajra","21207/أم-عجرة",""
"220","Wadi al-Bira","وادي البيرة","","wadi-al-bira","Galilee","Beisan","Northern","","","112","Community","Palestinian","70","70","","Depopulated","","","","","","","","","32.621653","35.502124","yes","","1683","","2656","759","GeoPoints/Wadi_al_Bira_1683","","",""
"221","Yubla","يبلى","יֻבּלָא","yubla","Galilee","Beisan","","","37","88","Village","Palestinian","210","210","","Depopulated","","","","","","","","1948-05-01","32.576623","35.469313","yes","49207","1709","112","2657","760","Baysan/Yubla","17182/yubla","21468/يبلى",""
"222","Zab'a","زبعة","זָבְּעָה","zaba","Galilee","Beisan","","","","147","Community","Palestinian","170","170","","Depopulated","","","","","","","","1948-05-01","32.553703","35.548508","yes","49158","1710","105","2658","762","Baysan/Zab%27a","17183/zaba","21437/زبعة",""
"223","al-'Auja","","","al-auja-beersheba","Gaza","Beersheba","Southern","","","","Community","Palestinian","","","","Depopulated","Community","","","","","","","","31.232392","34.764613","no","","","","2659","523","","","",""
"224","Beersheba","بئر السبع","באר שבע","beersheba","Gaza","Beersheba","Southern","1945_Urban","","","Town","Palestinian","5570","5570","","Appropriated","City","Jewish","200800","","180300","20500","","","31.239334","34.789048","yes","49062","535","135","2660","523","Beersheba/Beersheba","","",""
"226","Gevulot","","גבולות","gevulot","Gaza","Beersheba","Southern","","","","Settlement","Jewish","20","","20","Remaining","Settlement","Jewish","300","","300","","1943","","31.210900","34.465480","no","","","","2662","523","","","",""
"227","al-Jammama","الجمـّامة","אלג'מאמה","al-jammama","Gaza","Beersheba","","","","","Village","Palestinian","","","","Depopulated","","","","","","","","","31.498705","34.686311","yes","49072","1214","127","2663","523","Beersheba/al-Jammama","","",""
"228","Ruhama","","רוחמה","ruhama","Gaza","Beersheba","Southern","","","","Settlement","Jewish","70","","70","Remaining","Settlement","Jewish","600","","600","","1944","","31.497500","34.705320","yes","","","","2664","523","","","",""
"229","Revivim","","רביבים","revivim","Gaza","Beersheba","Southern","","","","Settlement","Jewish","20","","20","Remaining","Settlement","Jewish","1000","","900","100","1943","","31.043910","34.722470","no","","","","2665","523","","","",""
"230","Ahywat Tribes","الاحيوات","","ahywat-tribes","Gaza","Beersheba","","","","","Village","Palestinian","","","","Depopulated","","","","","","","","","31.238340","34.758968","no","","","","2666","523","","","",""
"231","Azazima Tribes","العزازمة","","azazima-tribes","Gaza","Beersheba","","","","","Village","Palestinian","","","","Depopulated","","","","","","","","","31.059820","34.743059","no","","","","2667","523","","","",""
"232","Hanajira Tribes","حنجرة","","hanajira-tribes","Gaza","Beersheba","","","","","Village","Palestinian","","","","Depopulated","","","","","","","","","31.227913","34.763613","no","","","","2668","523","","","",""
"233","Jubarat","الجبارات","","jubarat","Gaza","Beersheba","","","","","Community","Palestinian","","","","Depopulated","","","","","","","","","31.546971","34.763627","yes","","","","2669","523","","","",""
"234","Saidiyin Tribes","السعديين","","saidiyin-tribes","","","","","","","Village","Palestinian","","","","Depopulated","","","","","","","","","30.140203","35.173907","no","","","","2670","","","","",""
"235","Abu Suhaiban","أبوصهيبان","אַבּוּ סֻֿהַיְבַּאן","abu-suhaiban","Gaza","Beersheba","","","","","Village","Palestinian","","","","Depopulated","","","","","","","","","31.262583","34.626384","yes","49346","","141","2671","523","","","",""
"236","Tayaha Tribes","التياها","","tayaha-tribes","Gaza","Beersheba","","","","","Village","Palestinian","","","","Depopulated","","","","","","","","","31.071651","35.115176","no","","","179","2672","523","","","",""
"237","Dhullam","الظلام","","dhullam","Gaza","Beersheba","","","","","Village","Palestinian","","","","Depopulated","","","","","","","","","31.094859","35.261450","no","","","","2673","523","","","",""
"238","Huquq","حقوق","","huquq","Gaza","Beersheba","","","","","Village","Palestinian","","","","Depopulated","","","","","","","","","31.227835","34.753554","no","","","","2674","523","","","",""
"239","Nutush","النتش","","nutush","Gaza","Beersheba","","","","","Community","Palestinian","","","","Depopulated","","","","","","","","","31.332709","34.744825","yes","","","","2675","523","","","",""
"240","Gatatweh (Tayaha)","القطاطوة‌تياها","","gatatweh-tayaha","Gaza","Beersheba","","","","","Village","Palestinian","1023","1023","","Depopulated","","","","","","","","","31.452598","34.606128","no","49091","","","2676","523","","","",""
"241","Qudeirat","القديرات","","qudeirat","Gaza","Beersheba","","","","","Village","Palestinian","","","","Depopulated","","","","","","","","","31.243921","34.906999","no","","","","2677","523","","","",""
"242","Ramadan","الرمضان","","ramadan","Gaza","Beersheba","","","","","Village","Palestinian","","","","Depopulated","","","","","","","","","31.348100","34.895114","no","","","","2678","523","","","",""
"243","Shallaliyin","الشلالين","","shallaliyin","Gaza","Beersheba","","","","","Village","Palestinian","","","","Depopulated","","","","","","","","","31.235085","34.756584","no","","","","2679","523","","","",""
"244","Abasan al-Kabur","عبسان","","abasan-al-kabur","Gaza","Gaza","Gaza","","695","","Village","Palestinian","2230","2230","","Remaining","City","Palestinian","23914","23914","","","","","31.324878","34.351165","yes","","541","","2680","584","GeoPoints/_Abasan_al_Kabir_541","","",""
"245","al-Mughraqa (Abu Middein)","المُغْراقَه (ابو مِدِّين)","","al-mughraqa-abu-middein","Gaza","Gaza","Gaza","","","","Village","Palestinian","","","","Remaining","Village","Palestinian","8496","8496","","","","","31.468567","34.418164","no","","649","","2681","574","GeoPoints/Abu_Middein_649","","",""
"246","Arab Suqrir","عرب صقرير","עַרָבּ סֿקְרִיר","arab-suqrir-abu-suweirih","Gaza","Gaza","","","","530","Village","Palestinian","390","390","","Depopulated","","","","","","","","1948-05-10","31.824521","34.657625","yes","49372","806","228","2682","585","Gaza/Arab-Suqrir","16920/arab-suqrir","22304/عرب-صقرير",""
"247","Bani Suheila","بني سهيلة","","bani-suheila","Gaza","Gaza","Gaza","","1043","","Village","Palestinian","3220","3220","","Remaining","City","Palestinian","41174","41174","","","","","31.343610","34.324047","yes","","829","","2683","527","GeoPoints/Bani_Suheila_829","","",""
"248","Barbara","بربرة","בַּרְבַּרָה","barbara","Gaza","Gaza","","","1369","1546","Village","Palestinian","2410","2410","","Built over","","","","","","","","1948-11-05","31.624188","34.579155","yes","49034","833","251","2684","528","Gaza/Barbara","16930/barbara","22267/بربرة",""
"249","Barqa","برقة","בַּרְקָה","barqa","Gaza","Gaza","","","448","600","Village","Palestinian","890","890","","Depopulated","","","","","","","","1948-05-12","31.776047","34.700783","yes","49036","928","219","2685","529","Gaza/Barqa","16932/barqa","22268/برقة",""
"250","al-Batani al-Gharbi","البطاني الغربي","אלבַּטַאנִי אלע'רַבּי","al-batani-al-gharbi","Gaza","Gaza","","","556","667","Village","Palestinian","980","980","","Depopulated","","","","","","","","1948-06-10","31.758057","34.699375","yes","49027","1000","220","2686","530","Gaza/al-Batani-al-Gharbi","16795/al-batani-al-gharbi","22276/البطاني-الغربي",""
"251","al-Batani al-Sharqi","البطاني الشرقي","אלבַּטַאנִי אלשרקי","al-batani-al-sharqi","Gaza","Gaza","","","304","424","Village","Palestinian","650","650","","Depopulated","","","","","","","","1948-05-11","31.752181","34.723135","yes","49028","1001","221","2687","531","Gaza/al-Batani-al-Sharqi","16796/al-batani-al-sharqi","22271/البطاني-الشرقي",""
"252","Beer Tuvya","بير طوفيا","באר טוביה","beer-toviyya","Gaza","Gaza","Southern","","","","Settlement","Jewish","690","","690","Remaining","Settlement","Jewish","1100","","1100","","1930","","31.737078","34.721440","yes","","1748","","2688","582","","","",""
"253","Bayt 'Affa","بيت عفا","בֵּית עַפָא","bayt-affa","Gaza","Gaza","","","422","462","Village","Palestinian","700","700","","Depopulated","","","","","","","","1948-10-15","31.661410","34.706581","yes","49023","849","214","2689","532","Gaza/Bayt-%27Affa","16951/bayt-affa","22281/بيت-عفا",""
"254","Bayt Daras","بيت دراس","בּית דַרַאס","bayt-daras","Gaza","Gaza","","","1670","1804","Village","Palestinian","2750","2750","","Depopulated","","","","","","","","1948-05-10","31.722924","34.683176","yes","49058","856","215","2690","533","Gaza/Bayt-Daras","16952/bayt-daras","22279/بيت-دراس",""
"255","Bayt Hannun","بيت حانون","","bayt-hannun","Gaza","Gaza","Gaza","","885","","Village","Mixed","1730","1680","50","Remaining","City","Palestinian","53094","53094","","","","","31.541522","34.534872","yes","","861","","2691","534","GeoPoints/Bayt_Hanun_861","","",""
"256","Bayt Jirja","بيت جرجا","בֵּית גִ'רְגָ'א","bayt-jirja","Gaza","Gaza","","","397","619","Village","Palestinian","940","940","","Depopulated","","","","","","","","1948-11-01","31.602825","34.580814","yes","49016","840","247","2692","535","Gaza/Bayt-Jirja","16941/bayt-jirja","22278/بيت-جرجا",""
"257","Bayt Lahiya","بيت لاهية","","bayt-lahiya","Gaza","Gaza","Gaza","","871","","Village","Palestinian","1700","1700","","Remaining","City","Palestinian","89949","89949","","","","","31.548919","34.499736","yes","","872","","2693","536","GeoPoints/Bayt_Lahiya_872","","",""
"258","Bayt Tima","بيت طيما","בֵּית טִימָא","bayt-tima","Gaza","Gaza","","","606","762","Village","Palestinian","1060","1060","","Depopulated","","","","","","","","1948-10-18","31.623439","34.639078","yes","49017","890","244","2694","537","Gaza/Bayt-Tima","16948/bayt-tima","22280/بيت-طيما",""
"259","Bi'lin","بعلين","בִּעְלִין","bilin-gaza","Gaza","Gaza","","","101","127","Village","Palestinian","180","180","","Depopulated","","","","","","","","1948-07-09","31.688424","34.818040","yes","49004","902","233","2695","538","Gaza/Bi%27lin","16956/bilin","22277/بعلين",""
"260","Burayr","برير","בֻּרֵיר","burayr","Gaza","Gaza","","","1591","1894","Village","Palestinian","2740","2740","","Depopulated","","","","","","","","1948-05-13","31.570729","34.640659","yes","49047","924","216","2696","539","Gaza/Burayr","16962/burayr","22270/برير",""
"261","Dayr al-Balah","دير البلح","","dayr-al-balah","Gaza","Gaza","Gaza","","","","Village","Palestinian","2560","2560","","Remaining","City","Palestinian","72409","72409","","","","","31.418941","34.351600","yes","","958","","2697","575","GeoPoints/Dayr_al_Balah_958","","",""
"262","Dayr Sunayd","دير سنيد","דֵיר סֻנַיְד","dayr-sunayd","Gaza","Gaza","","","356","475","Village","Palestinian","730","730","","Depopulated","","","","","","","","1948-11-01","31.574789","34.555462","yes","49109","947","248","2698","540","Gaza/Dayr-Sunayd","16981/dayr-sunayd","22293/دير-سنيد",""
"263","Dimra","دمرة","דִמְרָה","dimra","Gaza","Gaza","","","251","324","Village","Palestinian","520","520","","Built over","","","","","","","","1948-11-01","31.558344","34.567389","yes","49097","979","245","2699","541","Gaza/Dimra","16985/dimra","22292/دمرة",""
"264","al-Faluja","الفالوجة","אלפאלוּג'ה","al-faluja","Gaza","Gaza","","","2482","3161","Village","Palestinian","4670","4670","","Depopulated","","","","","","","","1949-02-01","31.624688","34.748692","yes","49437","1011","258","2700","542","Gaza/al-Faluja","16807/al-faluja","22305/الفالوجة",""
"265","Gan Yavne","جان يفنه","גן יבנה","gan-yavne","Gaza","Gaza","Central","","","","Settlement","Jewish","610","","610","Remaining","Settlement","Jewish","23000","","22300","700","1931","","31.789731","34.713194","yes","","1776","","2701","529","","","",""
"266","Gaza","غزة","","gaza","Gaza","Gaza","Gaza","1945_Urban","17426","","Town","Palestinian","34250","34170","80","Remaining","City","Palestinian","583870","583870","","","","","31.501873","34.466000","yes","","526","","2702","525","GeoPoints/Gaza_526","","",""
"267","Hamama","حمامة","חַמַאמָה","hamama","Gaza","Gaza","","","2731","3405","Village","Palestinian","5070","5010","60","Depopulated","","","","","","","","1948-10-28","31.692954","34.591750","yes","49181","1163","252","2703","543","Gaza/Hamama","16995/hamama","22290/حمامة",""
"268","Hatta","حتا","חַתָּא","hatta","Gaza","Gaza","","","570","646","Village","Palestinian","970","970","","Depopulated","","","","","","","","1948-07-18","31.651776","34.740901","yes","49185","1167","241","2704","544","Gaza/Hatta","16997/hatta","22288/حتا",""
"269","Hiribya","هربيا","הִרִבְּיָא","hiribya","Gaza","Gaza","","","1037","1520","Village","Mixed","2300","2240","60","Built over","","","","","","","","1948-11-05","31.606130","34.546616","yes","49126","1169","249","2705","545","Gaza/Hiribya","16999/hiribya","22315/هربيا",""
"270","Huj","هوج","הוּג'","huj","Gaza","Gaza","","","426","618","Village","Mixed","1040","810","230","Built over","","","","","","","","1948-05-31","31.510613","34.622577","yes","49130","1174","230","2706","546","Gaza/Huj","17001/huj","22316/هوج",""
"271","Hulayqat","حليقات","חֻלֵיקַאת","hulayqat","Gaza","Gaza","","","251","285","Village","Palestinian","420","420","","Depopulated","","","","","","","","1948-05-13","31.600424","34.649518","yes","49189","1173","217","2707","547","Gaza/Hulayqat","17002/hulayqat","22289/حليقات",""
"272","Ibdis","عبدس","עִבְּדִס","ibdis","Gaza","Gaza","","","319","425","Village","Palestinian","540","540","","Depopulated","","","","","","","","1948-07-09","31.677152","34.698513","yes","49374","1183","234","2708","548","Gaza/Ibdis","17004/ibdis","22301/عبدس",""
"273","Iraq al-Manshiyya","عراق المنشية","עִרַאק אלמַנְשִיָה","iraq-al-manshiyya","Gaza","Gaza","","","1132","1347","Village","Mixed","2220","2010","210","Built over","","","","","","","","1949-02-01","31.607375","34.784204","yes","49378","606","259","2709","549","Gaza/Iraq-al-Manshiyya","17012/iraq-al-manshiyya","22303/عراق-المنشية",""
"274","Iraq Suwaydan","عراق سويدان","עִרַאק סְוֵידַאן","iraq-suwaydan","Gaza","Gaza","","","349","460","Village","Palestinian","660","660","","Depopulated","","","","","","","","1948-11-10","31.647641","34.694123","yes","49379","1194","257","2710","550","Gaza/Iraq-Suwaydan","17013/iraq-suwaydan","22302/عراق-سويدان",""
"275","Isdud","إسدود","אִסְדוּד","isdud","Gaza","Gaza","","","2566","3140","Village","Mixed","4910","4620","290","Depopulated","","","","","","","","1948-10-28","31.755311","34.660207","yes","48983","1196","246","2711","551","Gaza/Isdud","17014/isdud","22266/إسدود",""
"276","Jabaliya","جباليا","","jabaliya","Gaza","Gaza","Gaza","","","","Village","Palestinian","3520","3520","","Remaining","City","Palestinian","171642","171642","","","","","31.526429","34.483669","yes","","1203","","2712","581","GeoPoints/Jabaliya_1203","","",""
"277","al-Jaladiyya","الجلدية","אלגַ'לַדִיָּה","al-jaladiyya","Gaza","Gaza","","","232","228","Village","Palestinian","360","360","","Depopulated","","","","","","","","1948-07-01","31.692331","34.749889","yes","49084","1023","235","2713","552","Gaza/al-Jaladiyya","17020/al-jaladiyya","22284/الجلدية",""
"278","al-Jiyya","الجية","אלגִ'יָה","al-jiyya","Gaza","Gaza","","","667","899","Village","Palestinian","1230","1230","","Depopulated","","","","","","","","1948-11-05","31.628621","34.597091","yes","49075","722","253","2714","553","Gaza/al-Jiyya","16823/al-jiyya","22287/الجية",""
"279","Julis","جولس","ג'וּלִס","julis-gaza","Gaza","Gaza","","","481","682","Village","Palestinian","1030","1030","","Depopulated","","","","","","","","1948-06-11","31.681926","34.654111","yes","49068","1239","232","2715","554","Gaza/Julis","17029/julis","22286/جولس",""
"280","al-Jura","الجورة","אלג'ורה","al-jura-gaza","Gaza","Gaza","","","1326","1754","Village","Palestinian","2420","2420","","Depopulated","","","","","","","","1948-11-05","31.665856","34.554512","yes","49069","723","254","2716","555","Gaza/al-Jura","16824/al-jura","22285/الجورة",""
"281","Jusayr","جسير","גֻ'סֵיר","jusayr","Gaza","Gaza","","","579","839","Village","Palestinian","1180","1180","","Depopulated","","","","","","","","1948-06-11","31.658749","34.772248","yes","49095","1234","242","2717","556","Gaza/Jusayr","17030/jusayr","22283/جسير",""
"282","Karatiyya","كرتيا","כָּרָתִיָא","karatiyya","Gaza","Gaza","","","736","932","Village","Palestinian","1370","1370","","Depopulated","","","","","","","","1948-07-18","31.642548","34.726255","yes","49230","1281","243","2718","557","Gaza/Karatiyya","17038/karatiyya","22307/كرتيا",""
"283","Kawfakha","كوفخة","כַּוְפַחָ'ה","kawfakha","Gaza","Gaza","","","203","317","Village","Palestinian","500","500","","Depopulated","","","","","","","","1948-05-27","31.477861","34.661217","yes","49219","1285","227","2719","558","Gaza/Kawfakha","17040/kawfakha","22308/كوفخة",""
"284","Kawkaba","كوكبا","כַּוְכַּבָּא","kawkaba","Gaza","Gaza","","","439","522","Village","Palestinian","680","680","","Depopulated","","","","","","","","1948-05-13","31.630703","34.661706","yes","49218","1288","218","2720","559","Gaza/Kawkaba","17042/kawkaba","22309/كوكبا",""
"285","Kefar Warburg","كفار فاربورغ","כפר ורבורג","kefar-warburg","Gaza","Gaza","Southern","","","","Settlement","Jewish","260","","260","Remaining","Settlement","Jewish","1100","","1100","","1939","","31.717748","34.732789","yes","","2465","","2721","583","","","",""
"286","Kh.Khuza'a","خربة اخزاعة","","khirbat-khuzaa","Gaza","Gaza","Gaza","","","","Village","Palestinian","990","990","","Remaining","Village","Palestinian","11880","11880","","","","","31.306115","34.356614","no","","1326","","2722","560","GeoPoints/Kh_Khuza_a_1326","","",""
"287","Khan Yunis","خان يونس","","khan-yunis","Gaza","Gaza","Gaza","1945_Urban","","","Town","Palestinian","11220","11220","","Remaining","City","Palestinian","185250","185250","","","","","31.343230","34.302686","yes","","1354","","2723","578","GeoPoints/Khan_Yunis_1354","","",""
"288","al-Khisas","الخصاص","חִ'רְבּת חִ'סֿאסֿ","khirbat-khisas","Gaza","Gaza","","","102","133","Village","Palestinian","150","150","","Depopulated","","","","","","","","1948-11-05","31.648639","34.561662","yes","49169","4970","255","2724","561","Gaza/al-Khisas","16829/al-khisas","22291/الخصاص",""
"289","al-Majdal","المجدل","אלמָגְ'דָל","al-majdal-gaza","Gaza","Gaza","","1945_Urban","5097","6397","Town","Palestinian","9910","9910","","Built over","","","","","","","","1948-11-04","31.669063","34.586681","yes","49283","737","250","2725","526","Gaza/al-Majdal-Asqalan","16836/al-majdal","22034/المجدل",""
"290","al-Masmiyya al-Kabira","المسمية الكبيرة","אלמַסְמִיָּה אלכַּבִּירה","al-masmiyya-al-kabira","Gaza","Gaza","","","1930","1756","Village","Palestinian","2520","2520","","Depopulated","","","","","","","","1948-07-09","31.757892","34.785119","yes","49273","1052","236","2726","586","Gaza/al-Masmiyya-al-Kabira","16849/al-masmiyya-al-kabira","22312/المسمية-الكبيرة",""
"291","al-Masmiyya al-Saghira (Huraniya)","المسمية الصغيرة","אלמַסְמִיָּה אלסֿעִ'ירה","al-masmiyya-al-saghira-huraniya","Gaza","Gaza","","","261","354","Village","Palestinian","530","530","","Depopulated","","","","","","","","1948-07-09","31.752468","34.798557","yes","49274","1046","237","2727","587","Gaza/al-Masmiyya-al-Saghira","16850/al-masmiyya-al-saghira","22311/المسمية-الصغيرة",""
"292","al-Muharraqa","المحرقة","אלמֻחָרַּקָה","al-muharraqa","Gaza","Gaza","","","204","422","Village","Palestinian","580","580","","Depopulated","","","","","","","","1948-08-17","31.466362","34.611249","yes","49290","1058","229","2728","562","Gaza/al-Muharraqa","16855/al-muharraqa","22310/المحرقة",""
"293","Najd","نجد","נַגְ'ד","najd","Gaza","Gaza","","","305","422","Village","Palestinian","620","620","","Depopulated","","","","","","","","1948-05-13","31.553006","34.596860","yes","49308","1450","222","2729","563","Gaza/Najd","17103/najd","22313/نجد",""
"294","Nazla","النزلة","","nazla","Gaza","Gaza","Gaza","","694","","Village","Palestinian","1330","1330","","Remaining","","","","","","","","","31.530711","34.481553","yes","","1453","","2730","581","GeoPoints/Nazla_1453","","",""
"295","Negba","نغبة","נגבה","negba","Gaza","Gaza","Southern","","","","Settlement","Jewish","280","","280","Remaining","Settlement","Jewish","900","","900","","1939","","31.662153","34.683680","yes","","1856","","2731","564","","","",""
"296","Ni'ilya","نعليا","נִעִלְיָא","niilya","Gaza","Gaza","","","687","863","Village","Palestinian","1310","1310","","Depopulated","","","","","","","","1948-11-05","31.646136","34.572403","yes","49301","1439","256","2732","565","Gaza/Ni%27ilya","17106/niilya","22314/نعليا",""
"297","Nuseirat","نصيرات","נֻצֵירַאת","nuseirat","Gaza","Gaza","","","","","Community","Palestinian","","","","Remaining","","Palestinian","48769","48769","","","","","31.437281","34.367980","no","49314","1466","","2733","576","GeoPoints/Nuseirat_1466","","",""
"298","Qastina","قسطينة","קַסְטִינָה","qastina","Gaza","Gaza","","","604","593","Village","Palestinian","890","890","","Depopulated","","","","","","","","1948-07-09","31.739026","34.761904","yes","49453","1484","239","2734","566","Gaza/Qastina","17115/qastina","22306/قسطينة",""
"299","Rafah","رفح","","rafah","Gaza","Gaza","Gaza","","599","","Village","Palestinian","2220","2220","","Remaining","City","Palestinian","164000","164000","","","","","31.297493","34.243590","yes","","1500","","2735","579","GeoPoints/Rafah_1500","","",""
"300","al-Sawafir al-Gharbiyya","السوافير الغربية","אלסַוַּאפִיר אלעַ'רְבּיָּה","al-sawafir-al-gharbiyya","Gaza","Gaza","","","572","723","Village","Palestinian","1030","1030","","Depopulated","","","","","","","","1948-05-18","31.699975","34.703889","yes","49330","1097","224","2736","567","Gaza/al-Sawafir-al-Gharbiyya","16884/al-sawafir-al-gharbiyya","22299/السوافير-الغربية",""
"301","al-Sawafir al-Shamaliyya","السوافير الشمالية","אלסַוַאפִיר אלשַמַאלִיָּה","al-sawafir-al-shamaliyya","Gaza","Gaza","","","334","454","Village","Palestinian","680","680","","Depopulated","","","","","","","","1948-05-11","31.714025","34.704208","yes","49333","1098","225","2737","568","Gaza/al-Sawafir-al-Shamaliyya","16885/al-sawafir-al-shamaliyya","22298/السوافير-الشمالية",""
"302","al-Sawafir al-Sharqiyya","السوافير الشرقية","אלסַוַאפִיר אלשַרְקִיָּה","al-sawafir-al-sharqiyya","Gaza","Gaza","","","588","787","Village","Palestinian","970","970","","Depopulated","","","","","","","","1948-05-18","31.700138","34.712581","yes","49334","1099","226","2738","569","Gaza/al-Sawafir-al-Sharqiyya","16886/al-sawafir-al-sharqiyya","22295/السوافير-الشرقية",""
"303","Simsim","سمسم","סִמְסִם","simsim","Gaza","Gaza","","","760","855","Village","Mixed","1360","1290","70","Depopulated","","","","","","","","1948-05-13","31.567180","34.607369","yes","49321","1594","223","2739","571","Gaza/Simsim","17147/simsim","22294/سمسم",""
"304","Summil","صميل","סֿמֵיל","summil","Gaza","Gaza","","","561","692","Village","Palestinian","950","950","","Depopulated","","","","","","","","1948-07-01","31.665313","34.794836","yes","49361","1618","238","2740","570","Gaza/Summil","17153/summil","22300/صميل",""
"305","Sumeiri","سميري","","sumeiri","Gaza","Gaza","Gaza","","","","Village","Palestinian","","","","Remaining","","","","","","","","","31.393778","34.337436","no","","1617","","","577","GeoPoints/Sumeiri_1617","","",""
"306","Tall al-Turmus","تل الترمس","תל אלתֻרְמֻס","tall-al-turmus","Gaza","Gaza","","","384","540","Village","Palestinian","760","760","","Depopulated","","","","","","","","1948-07-01","31.725804","34.773010","yes","49507","1629","240","2742","572","Gaza/Tall-al-Turmus","17158/tall-al-turmus","22282/تل-الترمس",""
"307","Yasur","ياصور","יַאסֿוּר","yasur-gaza","Gaza","Gaza","","","456","654","Village","Palestinian","1070","1070","","Built over","","","","","","","","1948-06-11","31.766288","34.748482","yes","49204","1703","231","2743","573","Gaza/Yasur","17179/yasur","22317/ياصور",""
"309","Abu Shusha","أبو شوشة","אבּו שוּשָה","abu-shusha-haifa","Haifa","Haifa","","","","831","Village","Palestinian","720","720","","Depopulated","","","","","","","","1948-04-10","32.614397","35.137713","yes","49492","669","272","2745","907","Haifa/Abu-Shusha","20608/abu-shusha","21511/أبو-شوشة",""
"310","Abu Zurayq","أبو زريق","אַבּוּ זֻרֵיק","abu-zurayq","Haifa","Haifa","","","","","Village","Palestinian","550","550","","Depopulated","","","","","","","","1948-04-13","32.635040","35.125851","yes","49161","682","277","2746","908","Haifa/Abu-Zurayq","16785/abu-zurayq","21508/أبو-زريق",""
"311","Arab al-Fuqara'","عرب الفقراء","עַרַבּ אלפֻקַרַא","arab-al-fuqara","Haifa","Haifa","","","","","Village","Palestinian","310","310","","Depopulated","","","","","","","","1948-04-01","32.451172","34.908908","yes","49435","799","275","2747","960","Haifa/Arab-al-Fuqara%27","16914/arab-al-fuqara","21584/عرب-الفقراء",""
"312","Arab al-Nufay'at","عرب النفيعات","עַרַבּ אלנֻפַיעַאת","arab-al-nufayat","Haifa","Haifa","","","","","Village","Palestinian","820","820","","Depopulated","","","","","","","","1948-04-01","32.423021","34.881561","yes","49313","1082","276","2748","959","Haifa/Arab-al-Nufay%27at","16915/arab-al-nufayat","21585/عرب-النفيعات",""
"313","Ar'ara","أم الشوف","","arara","Haifa","Haifa","Haifa","","","","Village","Palestinian","2290","2290","","Remaining","Village","Palestinian","24100","24100","","","","","32.492869","35.097390","yes","","557","","2749","909","GeoPoints/_Ar_ara_557","","",""
"314","Balad al-Shaykh","بلد الشيخ","בַּלַד אלשֵיח'","balad-al-shaykh","Haifa","Haifa","","","407","747","Village","Palestinian","4120","4120","","Built over","","","","","","","","1948-04-24","32.772346","35.043038","yes","49032","826","287","2750","911","Haifa/Balad-al-Shaykh","16929/balad-al-shaykh","21526/بلد-الشيخ",""
"315","Bethlehem (Galilee)","بيت لحم","","bethlehem-galilee","Haifa","Haifa","","","224","235","Village","Palestinian","370","370","","Built over","","","","","","","1906","1948-01-04","32.736576","35.191496","yes","","3258","267","2751","961","GeoPoints/Beit_Lehem_3258","","",""
"316","Bet Shelomo","حيفا","בת שלמה","bat-shelomo","Haifa","Haifa","Haifa","","","","Settlement","Jewish","90","","90","Remaining","Settlement","Jewish","600","","600","","1889","","32.596068","35.004234","yes","","1746","","2752","912","","","",""
"317","Binyamina","بينيامينا","בנימינה-גבעת עדה*","binyamina-givat-ada","Haifa","Haifa","Haifa","","","","Settlement","Mixed","1520","270","1250","Remaining","Settlement","Jewish","15200","","14700","500","1903","","32.521179","34.949985","yes","","1762","","2753","971","","","",""
"318","Bureika","عين حوض","בֻּרֵיכָּה","burayka","Haifa","Haifa","","","249","237","Village","Palestinian","290","290","","Built over","","","","","","","","1948-05-12","32.558524","34.975606","yes","49046","1577","297","2754","913","Haifa/Burayka","","",""
"320","al-Butaymat","البطيمات","אלבֻּטֵימַאת","al-butaymat","Haifa","Haifa","","","","112","Village","Palestinian","110","110","","Depopulated","","","","","","","","1948-05-14","32.553164","35.093759","yes","49043","1009","295","2756","914","Haifa/al-Butaymat","16964/al-butaymat","21522/البطيمات",""
"321","Daliyat al-Rawha'","دالية الروحاء","דַאליָת אלרוּחַאא","daliyat-al-rawhaa","Haifa","Haifa","","","135","163","Village","Mixed","600","280","320","Depopulated","","","","","","","","1948-04-01","32.602745","35.077539","yes","49114","938","263","2757","916","Haifa/Daliyat-al-Rawha%27","16966/daliyat-al-rawha","21552/دالية-الروحاء",""
"322","al-Dumayri","الدميرة","","al-dumayri","Haifa","Haifa","","","","","Village","Palestinian","620","620","","Depopulated","","","","","","","","1948-10-04","32.460897","34.919594","yes","","987","274","2758","942","GeoPoints/al_Dumayri_987","","",""
"323","En HaShofet","جعارة","עין השופט","en-hashofet","Haifa","Haifa","Northern","","","","Settlement","Jewish","320","","320","Remaining","Settlement","Jewish","800","","700","100","1937","","32.596436","35.101851","yes","","1735","","2759","902","","","",""
"325","Emeq Tsevulun","عيمق زبلون","","emeq-tsevulun","Haifa","Haifa","Haifa","","","","Village","Mixed","1320","790","530","Remaining","","","","","","","","","32.870300","35.081500","no","","6015","","2761","919","","","",""
"326","al-Ghubayya al-Tahta","الغبيّة التحتا","אלעֻ'בַּיָה אלתַחְתָא","al-ghubayya-al-tahta","Haifa","Haifa","","","","","Village","Palestinian","1130","1130","","Depopulated","","","","","","","","1948-03-12","32.607960","35.144831","yes","49410","1015","271","2762","921","Haifa/al-Ghubayya-al-Fawqa","","",""
"328","Hadara","خضيرة","חדרה","hadera","Haifa","Haifa","Haifa","","","","Settlement","Mixed","7830","20","7810","Remaining","City","Jewish","90900","","84900","6000","1890","","32.435680","34.918510","yes","","328","","2764","905","","","",""
"329","Haifa","حيفا","","haifa","Haifa","Haifa","Haifa","1945_Urban","","","City","Mixed","138300","62800","75500","Appropriated","City","Mixed","279600","31200","218200","30200","","1948-04-21","32.815367","35.001540","yes","49192","531","286","2765","904","Haifa/Haifa","","",""
"330","Haz Zorea'","ها زوريع","הזורע","hazorea","Haifa","Haifa","Northern","","","","Settlement","Jewish","290","","290","Remaining","Settlement","Jewish","900","","800","100","1936","","32.644000","35.119500","no","","1794","","2766","972","","","",""
"332","Ibillin","إعبلين","","ibillin","Haifa","Haifa","Northern","","817","1116","Village","Palestinian","1660","1660","","Depopulated","","Palestinian","12800","12800","","","","1948-11-08","32.822238","35.192518","yes","","1182","","2768","922","GeoPoints/I_billin_1182","","",""
"333","Kabara","كبارة","כַּבַּארַה","kabara","Haifa","Haifa","","","","572","Community","Palestinian","120","120","","Depopulated","","","","","","","","1948-05-01","32.547401","34.922366","yes","49216","1244","293","2769","926","Haifa/Kabara","17031/kabara","21601/كبارة",""
"334","Kafr Qari'","كفر قرع","","kafr-qari","Haifa","Haifa","Haifa","","785","1109","Village","Palestinian","1510","1510","","Remaining","Village","Palestinian","17900","17900","","","","","32.505445","35.054056","yes","","1266","","2770","928","GeoPoints/Kafr_Qari__1266","","",""
"335","al-Kafrayn","الكفرين","אלכַּפְרֵין","al-kafrayn","Haifa","Haifa","","","571","657","Village","Palestinian","920","920","","Depopulated","","","","","","","","1948-04-12","32.573671","35.118489","yes","49223","725","278","2771","929","Haifa/al-Kafrayn","16827/al-kafrayn","21603/الكفرين",""
"336","Khirbat Jisr al-Zarqa","","","khirbat-jisr-al-zarqa","Haifa","Haifa","Haifa","","","","Community","Palestinian","620","620","","Remaining","Village","Palestinian","14200","14200","","","","","32.548207","34.914957","no","","1331","","2772","926","GeoPoints/Kh__Jisr_al_Zarqa_1331","","",""
"340","Kefar HaMakkabbi","كفار ها مكابى","כפר המכבי","kefar-hamakkabbi","Haifa","Haifa","Haifa","","","","Settlement","Jewish","210","","210","Remaining","Settlement","Jewish","400","","400","","1936","","32.791774","35.115990","yes","","1815","","2776","969","","","",""
"341","Khubbayza","خبيزة","חֻ'בַּיזָה","khubbayza","Haifa","Haifa","","","140","209","Village","Palestinian","290","290","","Depopulated","","","","","","","","1948-05-12","32.555716","35.066616","yes","49186","1367","298","2777","936","Haifa/Khubbayza","17078/khubbayza","21531/خبيزة",""
"342","Khirbat Lid","خربة لد","חִ'רְבּת לִד","khirbat-lid","Haifa","Haifa","","","","451","Village","Palestinian","640","640","","Depopulated","","","","","","","","1948-09-04","32.613809","35.222902","yes","49237","1335","273","2778","935","Haifa/Lid,-Khirbat","17070/khirbat-lid","21545/خربة-لد",""
"343","al-Mansi","المنسي","אלמַנְסי","al-mansi","Haifa","Haifa","","","72","467","Village","Palestinian","1200","1200","","Depopulated","","","","","","","","1948-04-13","32.594468","35.172532","yes","49266","742","279","2779","937","Haifa/al-Mansi","16843/al-mansi","21607/المنسي",""
"344","Mesheq Yagur","ميشق ياجور","יגור","yagur","Haifa","Haifa","Haifa","","","","Settlement","Jewish","1220","","1220","Remaining","Settlement","Jewish","1600","","1500","100","1922","","32.744550","35.076110","yes","","1842","","2780","965","","","",""
"345","Mishmar Ha'Emeq","مشمار هاعيمق","משמר העמק","mishmar-haemeq","Haifa","Haifa","Northern","","","","Settlement","Jewish","390","","390","Remaining","Settlement","Jewish","1200","","1200","","1926","","32.610928","35.142356","yes","","1846","","2781","966","","","",""
"346","Nesher","نيشر","נשר","nesher","Haifa","Haifa","Haifa","","","","Settlement","Mixed","2830","1430","1400","Remaining","City","Jewish","23400","","20900","2500","1925","","32.764810","35.051545","yes","","1857","","2782","911","","","",""
"347","Pardes Hanna","برديس حنا \ كركور","פרדס חנה-כרכור","pardes-hanna-karkur","Haifa","Haifa","Haifa","","","","Settlement","Mixed","2970","670","2300","Remaining","Settlement","Jewish","39500","","38300","1200","1913","","32.478264","34.971186","yes","","1862","","2783","939","","","",""
"348","Qannir","قنير","קַניר","qannir","Haifa","Haifa","","","400","483","Village","Palestinian","750","750","","Depopulated","","","","","","","","1948-04-25","32.528304","35.031120","yes","49452","1477","288","2784","940","Haifa/Qannir","17113/qannir","21595/قنير",""
"351","Qisariya","قيسارية","קִיסַארְיָה","qisarya","Haifa","Haifa","","","346","706","Village","Mixed","1120","960","160","Depopulated","","","","","","","","1948-02-15","32.502329","34.892349","yes","49464","1492","261","2787","942","Haifa/Qisarya","17120/qisariya","21599/قيسارية",""
"352","Ramat HaShofet","رامات هاشوفيت","רמת השופט","ramat-hashofet","Haifa","Haifa","Northern","","","","Settlement","Jewish","240","","240","Remaining","Settlement","Jewish","1100","","1000","100","1941","","32.610710","35.094170","no","","1875","","2788","968","","","",""
"353","Ramat Yohanan","رامات يوحنان","רמת יוחנן","ramat-yohanan","Haifa","Haifa","Haifa","","","","Settlement","Jewish","420","","420","Remaining","Settlement","Jewish","1000","","900","100","1932","","32.792714","35.121325","yes","","1879","","2789","969","","","",""
"354","al-Rihaniyya","الريحانية","אלרִיחַאנִיָה","al-rihaniyya-haifa","Haifa","Haifa","","","266","293","Village","Palestinian","240","240","","Depopulated","","","","","","","","1948-05-01","32.619860","35.085972","yes","49468","1086","294","2790","943","Haifa/al-Rihaniyya","16873/al-rihaniyya","21554/الريحانية",""
"355","Sabbarin","صبارين","סֿבַּארין","sabbarin","Haifa","Haifa","","","845","1108","Village","Palestinian","1700","1700","","Depopulated","","","","","","","","1948-05-12","32.572940","35.023344","yes","49355","1534","299","2791","944","Haifa/Sabbarin","17129/sabbarin","21560/صبارين",""
"356","Shafa 'Amr","شفا عمرو","","shafa-amr","Haifa","Haifa","Northern","1945_Urban","2288","","Town","Palestinian","7200","7190","10","Remaining","City","Palestinian","40400","40400","","","","1948-07-16","32.805046","35.169420","yes","","1573","314","2792","906","GeoPoints/Shafa_Amr_1573","","",""
"357","al-Sindiyana","السنديانة","אלסִנְדִיַאנָה","al-sindiyana","Haifa","Haifa","","","276","923","Village","Palestinian","1250","1250","","Depopulated","","","","","","","","1948-05-12","32.557538","35.001192","yes","49322","1101","300","2793","946","Haifa/al-Sindiyana","17148/al-sindiyana","21556/السنديانة",""
"358","al-Tira","الطيرة","אלטירָה","al-tira-haifa","Haifa","Haifa","","","2346","3191","Village","Palestinian","5270","5270","","Built over","","","","","","","","1948-07-16","32.762317","34.974355","yes","49200","1111","315","2794","948","Haifa/al-Tira","16899/al-tira","21566/الطيرة",""
"359","Umm al-Shawf","ام الشوف","אֻם אלשוֹף","umm-al-shawf","Haifa","Haifa","","","252","325","Village","Palestinian","480","480","","Depopulated","","","","","","","","1948-05-12","32.553215","35.048483","yes","48996","1663","301","2795","950","Haifa/Umm-al-Shawf","","",""
"360","Umm al-Zinat","أم الزينات","אֻם אלזינַאת","umm-al-zinat","Haifa","Haifa","","","787","1029","Village","Palestinian","1470","1470","","Depopulated","","","","","","","","1948-05-15","32.647440","35.064801","yes","48991","1668","306","2796","951","Haifa/Umm-al-Zinat","17166/umm-al-zinat","21515/أم-الزينات",""
"361","Usha","أوشا","אושה","usha","Haifa","Haifa","Haifa","","","","Settlement","Jewish","180","","180","Remaining","Settlement","Jewish","500","","500","","1937","","32.795065","35.115623","yes","","1905","","2797","969","","","",""
"362","Wadi 'Ara","وادي عارة","ואדי עארה","wadi-ara","Haifa","Haifa","","","68","81","Village","Palestinian","230","230","","Built over","","","","","","","","1948-02-27","32.474645","35.031780","yes","49142","1681","262","2798","952","Haifa/Wadi-%27Ara","17170/wadi-ara","21617/وادي-عارة",""
"363","Waldheim (Umm Al 'Amad)","فالدهايم / ام العمد","","waldheim-umm-al-amad","Haifa","Haifa","","","128","","Templer colony","Palestinian","260","260","","Built over","","","","","","","1907","1948-01-04","32.730176","35.170942","yes","","1686","269","2799","973","GeoPoints/Waldheim__Umm_al__Amad__1686","","",""
"365","Yoqne'am (Moshava)","يوكنيعام","יקנעם (מושבה)","yoqneam-moshava","Haifa","Haifa","Northern","","","","Settlement","Mixed","690","410","280","Remaining","Settlement","Jewish","1400","","1300","100","1935","","32.649508","35.116209","yes","","1911","","2801","955","","","",""
"366","Zikhron Ya'aqov","","זכרון יעקב","zikhron-yaaqov","Haifa","Haifa","Haifa","","","","Settlement","Jewish","1740","","1740","Remaining","Settlement","Jewish","22600","","21800","800","1882","","32.572527","34.953610","yes","","1912","","2802","956","","","",""
"367","Ajjur","عجور","עַגּ'וּר","ajjur","Jerusalem","Hebron","","","2072","2917","Village","Palestinian","3730","3730","","Depopulated","","","","","","","","1948-10-24","31.688995","34.921707","yes","49394","685","323","2803","497","Hebron/Ajjur","16787/ajjur","21647/عجور",""
"368","Arab al-Jahalin","عرب الجهالين","","arab-al-jahalin-hebron","Jerusalem","Hebron","West Bank","","","","Village","Palestinian","1000","1000","","Remaining","Community","Palestinian","","","","","","","31.396524","35.251524","no","","805","","2804","496","GeoPoints/_Arab_Jahallin_805","","",""
"369","Arab al-Ka'abina","","","arab-al-kaabina","Jerusalem","Hebron","West Bank","","","","Village","Palestinian","1000","1000","","Remaining","Community","Palestinian","","","","","","","31.523976","35.111101","no","","6016","","2805","490","GeoPoints/Arab_al_Ka_abina_6016","","",""
"370","Bani Na'im","بني نعيم","","bani-naim","Jerusalem","Hebron","West Bank","","1179","1646","Village","Palestinian","2160","2160","","Remaining","City","Palestinian","26523","26523","","","","","31.516087","35.164447","yes","","828","","2806","495","GeoPoints/Bani_Na_im_828","","",""
"371","Barqusya","برقوسيا","בַּרקּוּסיַא","barqusya","Jerusalem","Hebron","","","158","258","Village","Palestinian","330","330","","Depopulated","","","","","","","","1948-07-10","31.679630","34.823305","yes","49007","835","319","2807","498","Hebron/Barqusya","16933/barqusya","21624/برقوسيا",""
"372","Bayt Aula","بيت أولا","","bayt-aula","Jerusalem","Hebron","West Bank","","825","1045","Village","Palestinian","1310","1310","","Remaining","Village","Palestinian","14375","14375","","","","","31.596400","35.029784","yes","","853","","2808","499","GeoPoints/Bayt_Aula_853","","",""
"373","Bayt Jibrin","بيت جبرين","בּית גִ'בּרִין","bayt-jibrin","Jerusalem","Hebron","","","1420","1804","Village","Palestinian","2430","2430","","Depopulated","","","","","","","","1948-10-27","31.606553","34.896451","yes","49055","868","331","2809","500","Hebron/Bayt-Jibrin","16940/bayt-jibrin","21626/بيت-جبرين",""
"374","Bayt Kahil","بيت كاحل","","bayt-kahil","Jerusalem","Hebron","West Bank","","336","452","Village","Palestinian","570","570","","Remaining","Village","Palestinian","8618","8618","","","","","31.569782","35.066634","yes","","871","","2810","485","GeoPoints/Bayt_Kahil_871","","",""
"375","Bayt Nattif","بيت نتيف","בּית נַתִּיף","bayt-nattif","Jerusalem","Hebron","","","","1649","Village","Palestinian","2150","2150","","Depopulated","","","","","","","","1948-10-21","31.696650","34.994834","yes","49059","879","324","2811","501","Hebron/Bayt-Nattif","16946/bayt-nattif","21628/بيت-نتيف",""
"376","Bayt Ummar","بيت أمر","","bayt-ummar","Jerusalem","Hebron","West Bank","","829","1135","Village","Mixed","1680","1600","80","Remaining","City","Palestinian","17892","17892","","","","","31.620491","35.102368","yes","","892","","2812","486","GeoPoints/Bayt_Ummar_892","","",""
"377","al-Dawayima","الدوايمة","אלדַוַאיְמה","al-dawayima","Jerusalem","Hebron","","","2441","2688","Village","Palestinian","3710","3710","","Built over","","","","","","","","1948-10-29","31.536759","34.912503","yes","49115","702","332","2813","502","Hebron/al-Dawayima","16803/al-dawayima","21633/الدوايمة",""
