"id","name_en","name_ar","name_he","slug","district_1945","district_isr","type_special","pop_1922","pop_1931","type_1945","grp_1945","pop_1945","pal_1945","jsh_1945","change_2016","type_2016","grp_2016","pop_2016","pal_2016","jsh_2016","oth_2016","start","end","lat","lng","map_20k","id_zo","id_pr","id_as","id_old","url_pr"
"Z086","Zayit Ra'anan","زيت رعنان","זית רענן","zayit-raanan","","West Bank","Illegal outpost","","","","","","","","Newly built","Illegal outpost","Jewish","","","","","2001","","31.956540","35.116030","no","","","","",""
"Z085","Yair Farm","حفات يئير","חוות יאיר","yair-farm","","West Bank","Illegal outpost","","","","","","","","Newly built","Illegal outpost","Jewish","","","","","2001","","32.145890","35.105940","no","","","","",""
"Z084","Tzur Shalem","تسور شاليم","צור שלם","tzur-shalem","","West Bank","Illegal outpost","","","","","","","","Newly built","Illegal outpost","Jewish","","","","","2001","","31.606320","35.096860","no","","","","",""
"Z083","Tko'a D","تقوع د","תקוע ד","tkoa-d","","West Bank","Illegal outpost","","","","","","","","Newly built","Illegal outpost","Jewish","","","","","2002","","31.635520","35.242680","no","","","","",""
"Z082","Tko'a B-C","تقوع ب-ج","תקוע ב-ג","tkoa-b-c","","West Bank","Illegal outpost","","","","","","","","Newly built","Illegal outpost","Jewish","","","","","2001","","31.643450","35.232100","no","","","","",""
"Z081","Tapuach Ma'arav","تبواح غرب","תפוח מערב","tapuach-maarav","","West Bank","Illegal outpost","","","","","","","","Newly built","Illegal outpost","Jewish","","","","","2001","","32.116470","35.233680","no","","","","",""
"Z080","Tal Menashe","طل منشيه","טל מנשה","tal-menashe","","West Bank","Illegal outpost","","","","","","","","Newly built","Illegal outpost","Jewish","","","","","1991","","32.482250","35.159880","no","","","","",""
"Z079","Susiya North West","سوسيا شمال غرب","סוסיא צפון מערב","susiya-north-west","","West Bank","Illegal outpost","","","","","","","","Newly built","Illegal outpost","Jewish","","","","","2001","","31.395030","35.110370","no","","","","",""
"Z078","Sneh Yaakov","سنيه يعقوب","סנה יעקב","sneh-yaakov","","West Bank","Illegal outpost","","","","","","","","Newly built","Illegal outpost","Jewish","","","","","1999","","32.177770","35.262130","no","","","","",""
"Z077","Skali's Farm","مزرعة سكالي","החווה של סקאלי","skalis-farm","","West Bank","Illegal outpost","","","","","","","","Newly built","Illegal outpost","Jewish","","","","","1999","","32.214310","35.370220","no","","","","",""
"Z076","Sde Bar","ساديه بار","שדה בר","sde-bar","","West Bank","Illegal outpost","","","","","","","","Newly built","Illegal outpost","Jewish","","","","","1998","","31.660530","35.244410","no","","","","",""
"Z075","Ramat Gilad","رمات جلعاد","רמת גלעד","ramat-gilad","","West Bank","Illegal outpost","","","","","","","","Newly built","Illegal outpost","Jewish","","","","","2002","","32.178510","35.114040","no","","","","",""
"Z074","Pnei Kedem","بني كيدم","פני קדם","pnei-kedem","","West Bank","Illegal outpost","","","","","","","","Newly built","Illegal outpost","Jewish","","","","","2002","","31.588270","35.196200","no","","","","",""
"Z073","Palgey Maim","بلجي مايم","פלגי מים","palgey-maim","","West Bank","Illegal outpost","","","","","","","","Newly built","Illegal outpost","Jewish","","","","","1999","","32.087760","35.274680","no","","","","",""
"Z072","Omer Farm","حفات عومر","חוות עומר","omer-farm","","West Bank","Illegal outpost","","","","","","","","Newly built","Illegal outpost","Jewish","","","","","2005","","31.927680","35.428720","no","","","","",""
"Z071","Old Massu'ot Itzhak","مسوؤت يتسحاق القديمة","משואות יצחק הישנה","old-massuot-itzhak","","West Bank","Illegal outpost","","","","","","","","Newly built","Illegal outpost","Jewish","","","","","2001","","31.661330","35.108680","no","","","","",""
"Z070","Ofra Zfon Mizrah","عوفرة شمال شرق","עפרה צפון מזרח","ofra-zfon-mizrah","","West Bank","Illegal outpost","","","","","","","","Newly built","Illegal outpost","Jewish","","","","","2004","","31.957350","35.267430","no","","","","",""
"Z069","Nofei Nehemia","نوفي نحاميَه","נופי נחמיה","nofei-nehemia","","West Bank","Illegal outpost","","","","","","","","Newly built","Illegal outpost","Jewish","","","","","2002","","32.098220","35.236200","no","","","","",""
"Z068","Nof Nesher","نوف نيشر","נוף נשר","nof-nesher","","West Bank","Illegal outpost","","","","","","","","Newly built","Illegal outpost","Jewish","","","","","1996","","31.367390","35.124480","no","","","","",""
"Z067","Nof Harim","نوف هاريم","נוף הרים","nof-harim","","West Bank","Illegal outpost","","","","","","","","Newly built","Illegal outpost","Jewish","","","","","1998","","32.076280","35.280070","no","","","","",""
"Z066","Neve Erez","نفي إيرز","נווה ארז","neve-erez","","West Bank","Illegal outpost","","","","","","","","Newly built","Illegal outpost","Jewish","","","","","2001","","31.864750","35.311270","no","","","","",""
"Z065","Neve Daniel North","نفي دانييل الشمالية","נווה דניאל צפון","neve-daniel-north","","West Bank","Illegal outpost","","","","","","","","Newly built","Illegal outpost","Jewish","","","","","2002","","31.694080","35.147820","no","","","","",""
"Z064","Nerya","نريا","נריה","nerya","","West Bank","Illegal outpost","","","","","","","","Newly built","Illegal outpost","Jewish","","","","","1991","","31.950950","35.135420","no","","","","",""
"Z063","Mul Nevo","مول نيفو","מול נבו","mul-nevo","","West Bank","Illegal outpost","","","","","","","","Newly built","Illegal outpost","Jewish","","","","","2001","","31.821190","35.507370","no","","","","",""
"Z062","Mor Farm","حفات مور","חוות מור","mor-farm","","West Bank","Illegal outpost","","","","","","","","Newly built","Illegal outpost","Jewish","","","","","1999","","31.370900","34.968780","no","","","","",""
"Z061","Mizpe Jericho North East","متسبيه يريحو شمال شرق","מצפה יריחו צפון מזרח","mizpe-jericho-north-east","","West Bank","Illegal outpost","","","","","","","","Newly built","Illegal outpost","Jewish","","","","","2001","","31.823630","35.402930","no","","","","",""
"Z060","Mitzpe Yitzhar","متسبيه يتسهار","מצפה יצהר","mitzpe-yitzhar","","West Bank","Illegal outpost","","","","","","","","Newly built","Illegal outpost","Jewish","","","","","2002","","32.157250","35.249500","no","","","","",""
"Z059","Mitzpe Yair","متسبيه يئير","מצפה יאיר","mitzpe-yair","","West Bank","Illegal outpost","","","","","","","","Newly built","Illegal outpost","Jewish","","","","","1998","","31.383810","35.135350","no","","","","",""
"Z058","Mitzpe Ro'i","متسبيه روعي","מצפה רועי","mitzpe-roi","","West Bank","Illegal outpost","","","","","","","","Newly built","Illegal outpost","Jewish","","","","","2001","","31.895920","35.230440","no","","","","",""
"Z057","Mitzpe Lachish","متسبيه لكيش","מצפה לכיש","mitzpe-lachish","","West Bank","Illegal outpost","","","","","","","","Newly built","Illegal outpost","Jewish","","","","","2002","","31.496720","34.970460","no","","","","",""
"Z056","Mitzpe Kramim","متسبيه كرميم","מצפה כרמים","mitzpe-kramim","","West Bank","Illegal outpost","","","","","","","","Newly built","Illegal outpost","Jewish","","","","","2001","","31.957450","35.357300","no","","","","",""
"Z055","Mitzpe Danny","متسبيه داني","מצפה דני","mitzpe-danny","","West Bank","Illegal outpost","","","","","","","","Newly built","Illegal outpost","Jewish","","","","","1999","","31.879990","35.314970","no","","","","",""
"Z054","Mishpatei Eretz","مشباطيه آرتس","משפטי ארץ","mishpatei-eretz","","West Bank","Illegal outpost","","","","","","","","Newly built","Illegal outpost","Jewish","","","","","2004","","31.939440","35.251700","no","","","","",""
"Z053","Migron","مجرون","מגרון","migron","","West Bank","Illegal outpost","","","","","","","","Newly built","Illegal outpost","Jewish","","","","","2002","","31.890060","35.271600","no","","","","",""
"Z052","Mevo'ot Jericho","مفوؤت يريحو","מבואות יריחו","mevoot-jericho","","West Bank","Illegal outpost","","","","","","","","Newly built","Illegal outpost","Jewish","","","","","1999","","31.907780","35.416880","no","","","","",""
"Z051","Maoz Zvi","معوز تسفي","מעוז צבי","maoz-zvi","","West Bank","Illegal outpost","","","","","","","","Newly built","Illegal outpost","Jewish","","","","","2001","","32.424230","35.165000","no","","","","",""
"Z050","Magen Dan","ماجين دان","מגן דן","magen-dan","","West Bank","Illegal outpost","","","","","","","","Newly built","Illegal outpost","Jewish","","","","","1999","","32.110140","35.021110","no","","","","",""
"Z049","Ma'ale Yisrael","معالي يسرائيل","מעלה ישראל","maale-yisrael","","West Bank","Illegal outpost","","","","","","","","Newly built","Illegal outpost","Jewish","","","","","1997","","32.115580","35.104900","no","","","","",""
"Z048","Ma'ale Shlomo","معالي شلومو","מעלה שלמה","maale-shlomo","","West Bank","Illegal outpost","","","","","","","","Newly built","Illegal outpost","Jewish","","","","","1999","","31.948930","35.344130","no","","","","",""
"Z047","Ma'ale Rehav'am","معالي رحبعام","מעלה רחבעם","maale-rehavam","","West Bank","Illegal outpost","","","","","","","","Newly built","Illegal outpost","Jewish","","","","","2002","","31.648900","35.258450","no","","","","",""
"Z046","Ma'ale Hagit","معالي حجيت","מעלה חגית","maale-hagit","","West Bank","Illegal outpost","","","","","","","","Newly built","Illegal outpost","Jewish","","","","","1999","","31.851460","35.337520","no","","","","",""
"Z045","Ma'ale Efrayim Preparatory","مخيناه معالي إفرايم","מכינה מעלה אפרים","maale-efrayim-preparatory","","West Bank","Illegal outpost","","","","","","","","Newly built","Illegal outpost","Jewish","","","","","2015","","32.070220","35.393870","no","","","","",""
"Z044","Lehavat Yitzhar","لهفات يتسهار","להבת יצהר","lehavat-yitzhar","","West Bank","Illegal outpost","","","","","","","","Newly built","Illegal outpost","Jewish","","","","","1998","","32.117860","35.248310","no","","","","",""
"Z043","Kochav Ya'akov West","كوخاب يعقوب غرب","כוכב יעקב מערב","kochav-yaakov-west","","West Bank","Illegal outpost","","","","","","","","Newly built","Illegal outpost","Jewish","","","","","2002","","31.883730","35.234250","no","","","","",""
"Z042","Kochav Ya'akov East","كوخاب يعقوب شرق","כוכב יעקב מזרח","kochav-yaakov-east","","West Bank","Illegal outpost","","","","","","","","Newly built","Illegal outpost","Jewish","","","","","2003","","31.877830","35.252190","no","","","","",""
"Z041","Kida","كيدا","קידה","kida","","West Bank","Illegal outpost","","","","","","","","Newly built","Illegal outpost","Jewish","","","","","2003","","32.051040","35.339620","no","","","","",""
"Z040","Karmei Doron","كرمي دورون","כרמי דורון","karmei-doron","","West Bank","Illegal outpost","","","","","","","","Newly built","Illegal outpost","Jewish","","","","","2002","","32.290170","35.129220","no","","","","",""
"Z039","Jabel Artis","جبل غراطيس","ג'בל ע'רטיס","jabel-artis","","West Bank","Illegal outpost","","","","","","","","Newly built","Illegal outpost","Jewish","","","","","2001","","31.947370","35.229700","no","","","","",""
"Z038","Ibei Hanahal","إيبي هناحل","איבי הנחל","ibei-hanahal","","West Bank","Illegal outpost","","","","","","","","Newly built","Illegal outpost","Jewish","","","","","1999","","31.605640","35.219990","no","","","","",""
"Z037","Hill 851","جفعا 851","גבעה 851","hill-851","","West Bank","Illegal outpost","","","","","","","","Newly built","Illegal outpost","Jewish","","","","","1998","","32.164770","35.339080","no","","","","",""
"Z036","Hill 836","جفعا 836","גבעה 836","hill-836","","West Bank","Illegal outpost","","","","","","","","Newly built","Illegal outpost","Jewish","","","","","1998","","32.165420","35.362980","no","","","","",""
"Z035","Hill 782","جفعا 782","גבעה 782","hill-782","","West Bank","Illegal outpost","","","","","","","","Newly built","Illegal outpost","Jewish","","","","","1999","","32.159910","35.331830","no","","","","",""
"Z034","Hill 777","جفعا 777","גבעה 777","hill-777","","West Bank","Illegal outpost","","","","","","","","Newly built","Illegal outpost","Jewish","","","","","1999","","32.154510","35.369170","no","","","","",""
"Z033","Hill 725","جفعا 725","גבעה 725","hill-725","","West Bank","Illegal outpost","","","","","","","","Newly built","Illegal outpost","Jewish","","","","","2001","","32.158510","35.240440","no","","","","",""
"Z032","Heruti","حيروتي","חרותי","heruti","","West Bank","Illegal outpost","","","","","","","","Newly built","Illegal outpost","Jewish","","","","","2001","","31.833030","35.185830","no","","","","",""
"Z031","Hayovel","هيوفيل","היובל","hayovel","","West Bank","Illegal outpost","","","","","","","","Newly built","Illegal outpost","Jewish","","","","","1998","","32.071260","35.284580","no","","","","",""
"Z030","Havat Yeshuv Hada'at","حفات هداعت","חוות יישוב הדעת","havat-yeshuv-hadaat","","West Bank","Illegal outpost","","","","","","","","Newly built","Illegal outpost","Jewish","","","","","2002","","32.046400","35.340010","no","","","","",""
"Z029","Haro'eh","هروئيه","הרואה","haroeh","","West Bank","Illegal outpost","","","","","","","","Newly built","Illegal outpost","Jewish","","","","","2002","","32.054750","35.262650","no","","","","",""
"Z028","Haresha","حورشا","חרשה","haresha","","West Bank","Illegal outpost","","","","","","","","Newly built","Illegal outpost","Jewish","","","","","1997","","31.944470","35.148650","no","","","","",""
"Z027","Har Hemed","هار حيمد","הר חמד","har-hemed","","West Bank","Illegal outpost","","","","","","","","Newly built","Illegal outpost","Jewish","","","","","1996","","32.230550","35.151930","no","","","","",""
"Z026","Hanekuda","هنكودة","הנקודה","hanekuda","","West Bank","Illegal outpost","","","","","","","","Newly built","Illegal outpost","Jewish","","","","","1996","","32.169670","35.316320","no","","","","",""
"Z025","Hakaron","هكرون","הקרון","hakaron","","West Bank","Illegal outpost","","","","","","","","Newly built","Illegal outpost","Jewish","","","","","2002","","32.070080","35.280360","no","","","","",""
"Z024","Hahar","ههار","ההר","hahar","","West Bank","Illegal outpost","","","","","","","","Newly built","Illegal outpost","Jewish","","","","","1998","","32.287730","35.084810","no","","","","",""
"Z023","Gva'ot Olam","جفاعوت عولام","גבעות עולם","gvaot-olam","","West Bank","Illegal outpost","","","","","","","","Newly built","Illegal outpost","Jewish","","","","","1998","","32.160240","35.352670","no","","","","",""
"Z022","Givat Assaf","جفعات أساف","גבעת אסף","givat-assaf","","West Bank","Illegal outpost","","","","","","","","Newly built","Illegal outpost","Jewish","","","","","2002","","31.910960","35.248290","no","","","","",""
"Z021","Giv'at Harel","جفعات هرئيل","גבעת הראל","givat-harel","","West Bank","Illegal outpost","","","","","","","","Newly built","Illegal outpost","Jewish","","","","","1998","","32.058690","35.274530","no","","","","",""
"Z020","Giv'at Hahish","جفعات هحايش","גבעת החי""ש","givat-hahish","","West Bank","Illegal outpost","","","","","","","","Newly built","Illegal outpost","Jewish","","","","","1998","","31.655380","35.133110","no","","","","",""
"Z019","Giv'at Avichay","جفعات أفيحاي","גבעת אביחי","givat-avichay","","West Bank","Illegal outpost","","","","","","","","Newly built","Illegal outpost","Jewish","","","","","2001","","31.542670","35.129240","no","","","","",""
"Z018","Gilad Farm","حفات جلعاد","חוות גלעד","gilad-farm","","West Bank","Illegal outpost","","","","","","","","Newly built","Illegal outpost","Jewish","","","","","2002","","32.199740","35.181070","no","","","","",""
"Z017","Gal Outpost","مأحاز جال","מאחז גל","gal-outpost","","West Bank","Illegal outpost","","","","","","","","Newly built","Illegal outpost","Jewish","","","","","2002","","31.523640","35.126850","no","","","","",""
"Z016","Esh Kodesh","إيش كودش","אש קודש","esh-kodesh","","West Bank","Illegal outpost","","","","","","","","Newly built","Illegal outpost","Jewish","","","","","2000","","32.064280","35.333980","no","","","","",""
"Z015","Derech HaAvot","ديرِخ هأفوت","דרך האבות","derech-haavot","","West Bank","Illegal outpost","","","","","","","","Newly built","Illegal outpost","Jewish","","","","","2001","","31.666260","35.136080","no","","","","",""
"Z014","Bracha A","براخا أ","ברכה א","bracha-a","","West Bank","Illegal outpost","","","","","","","","Newly built","Illegal outpost","Jewish","","","","","1998","","32.193280","35.255560","no","","","","",""
"Z013","Bnei Adam","بني أدم","בני אדם","bnei-adam","","West Bank","Illegal outpost","","","","","","","","Newly built","Illegal outpost","Jewish","","","","","2004","","31.844070","35.307180","no","","","","",""
"Z012","Beit El East","بيت إيل شرق","בית אל מזרח","beit-el-east","","West Bank","Illegal outpost","","","","","","","","Newly built","Illegal outpost","Jewish","","","","","2001","","31.941210","35.229950","no","","","","",""
"Z011","Bat Ayin West","بات عاين غرب","בת עין מערב","bat-ayin-west","","West Bank","Illegal outpost","","","","","","","","Newly built","Illegal outpost","Jewish","","","","","2002","","31.662540","35.092020","no","","","","",""
"Z010","Bat Ayin East","بات عاين شرق","בת עין מזרח","bat-ayin-east","","West Bank","Illegal outpost","","","","","","","","Newly built","Illegal outpost","Jewish","","","","","1998","","31.653300","35.108660","no","","","","",""
"Z009","Avigayil","أفيجايل","אביגיל","avigayil","","West Bank","Illegal outpost","","","","","","","","Newly built","Illegal outpost","Jewish","","","","","2001","","31.403140","35.141130","no","","","","",""
"Z008","Asa'el","عسائيل","עשהאל","asael","","West Bank","Illegal outpost","","","","","","","","Newly built","Illegal outpost","Jewish","","","","","2002","","31.373540","35.043780","no","","","","",""
"Z007","Ancient Susiya Synagogue","الكنيس القديم سوسيا","בית הכנסת העתיק סוסיא","ancient-susiya-synagogue","","West Bank","Illegal outpost","","","","","","","","Newly built","Illegal outpost","Jewish","","","","","2002","","31.407040","35.104370","no","","","","",""
"Z006","Alt. 468","أعلى نقطة 468","נ.ג. 468","alt-468","","West Bank","Illegal outpost","","","","","","","","Newly built","Illegal outpost","Jewish","","","","","2002","","31.820250","35.315460","no","","","","",""
"Z005","Alonei Shilo","ألوني شيلو","אלוני שילה","alonei-shilo","","West Bank","Illegal outpost","","","","","","","","Newly built","Illegal outpost","Jewish","","","","","1999","","32.163670","35.121110","no","","","","",""
"Z004","Ahuzat Shalhevet","أحوزات شلهيفت","אחוזת שלהבת","ahuzat-shalhevet","","West Bank","Illegal outpost","","","","","","","","Newly built","Illegal outpost","Jewish","","","","","1999","","32.171320","35.226300","no","","","","",""
"Z003","Ahiya","أحِياه","אחיה","ahiya","","West Bank","Illegal outpost","","","","","","","","Newly built","Illegal outpost","Jewish","","","","","1997","","32.061850","35.328820","no","","","","",""
"Z002","Ahavat Chaim","أهفات حاييم","אהבת חיים","ahavat-chaim","","West Bank","Illegal outpost","","","","","","","","Newly built","Illegal outpost","Jewish","","","","","1999","","31.957890","35.342160","no","","","","",""
"Z001","Adei Ad","عدي عد","עדי עד","adei-ad","","West Bank","Illegal outpost","","","","","","","","Newly built","Illegal outpost","Jewish","","","","","1998","","32.041790","35.335980","no","","","","",""
"Y032","Yonatan","","יונתן","yonatan","Quneitra (Syria)","Golan","Illegal settlement","","","","","","","","Newly built","Illegal settlement","Jewish","700","","700","","1976","","32.938030","35.794370","no","","","","",""
"Y031","Sha'al","","שעל","shaal","Quneitra (Syria)","Golan","Illegal settlement","","","","","","","","Newly built","Illegal settlement","Jewish","200","","200","","1976","","33.116540","35.718200","no","","","","",""
"Y030","Ramot (Golan)","","רמות","ramot-golan","Quneitra (Syria)","Golan","Illegal settlement","","","","","","","","Newly built","Illegal settlement","Jewish","500","","500","","1970","","32.850570","35.666560","no","","","","",""
"Y029","Ramat Magshimim","","רמת מגשימים","ramat-magshimim","Quneitra (Syria)","Golan","Illegal settlement","","","","","","","","Newly built","Illegal settlement","Jewish","600","","600","","1968","","32.844830","35.807960","no","","","","",""
"Y028","Qidmat Zevi","","קדמת צבי","qidmat-zevi","Quneitra (Syria)","Golan","Illegal settlement","","","","","","","","Newly built","Illegal settlement","Jewish","400","","400","","1985","","33.029970","35.698110","no","","","","",""
"Y027","Qeshet","","קשת","qeshet","Quneitra (Syria)","Golan","Illegal settlement","","","","","","","","Newly built","Illegal settlement","Jewish","800","","800","","1974","","32.979980","35.808550","no","","","","",""
"Y026","Qela","","קלע","qela","Quneitra (Syria)","Golan","Illegal settlement","","","","","","","","Newly built","Illegal settlement","Jewish","200","","200","","1984","","33.132340","35.690540","no","","","","",""
"Y025","Qazrin","","קצרין","qazrin","Quneitra (Syria)","Golan","Illegal settlement","","","","","","","","Newly built","Illegal settlement","Jewish","6900","","5700","1200","1977","","32.992770","35.687950","no","","","","",""
"Y024","Ortal","","אורטל","ortal","Quneitra (Syria)","Golan","Illegal settlement","","","","","","","","Newly built","Illegal settlement","Jewish","300","","300","","1978","","33.083510","35.765780","no","","","","",""
"Y023","Odem","","אודם","odem","Quneitra (Syria)","Golan","Illegal settlement","","","","","","","","Newly built","Illegal settlement","Jewish","100","","100","","1976","","33.193490","35.749530","no","","","","",""
"Y022","Nov","","נוב","nov","Quneitra (Syria)","Golan","Illegal settlement","","","","","","","","Newly built","Illegal settlement","Jewish","900","","900","","1973","","32.832770","35.782670","no","","","","",""
"Y021","Newe Ativ","","נווה אטי""ב","newe-ativ","Quneitra (Syria)","Golan","Illegal settlement","","","","","","","","Newly built","Illegal settlement","Jewish","100","","100","","1972","","33.262230","35.741700","no","","","","",""
"Y020","Ne'ot Golan","","נאות גולן","neot-golan","Quneitra (Syria)","Golan","Illegal settlement","","","","","","","","Newly built","Illegal settlement","Jewish","600","","500","100","1967","","32.786910","35.691850","no","","","","",""
"Y019","Natur","","נטור","natur","Quneitra (Syria)","Golan","Illegal settlement","","","","","","","","Newly built","Illegal settlement","Jewish","700","","700","","1980","","32.853200","35.753110","no","","","","",""
"Y018","Mezar","","מיצר","mezar","Quneitra (Syria)","Golan","Illegal settlement","","","","","","","","Newly built","Illegal settlement","Jewish","200","","200","","1981","","32.767070","35.736040","no","","","","",""
"Y017","Mevo Hamma","","מבוא חמה","mevo-hamma","Quneitra (Syria)","Golan","Illegal settlement","","","","","","","","Newly built","Illegal settlement","Jewish","400","","400","","1968","","32.736190","35.654980","no","","","","",""
"Y016","Merom Golan","","מרום גולן","merom-golan","Quneitra (Syria)","Golan","Illegal settlement","","","","","","","","Newly built","Illegal settlement","Jewish","700","","700","","1967","","33.133150","35.775850","no","","","","",""
"Y015","Ma'ale Gamla","","מעלה גמלא","maale-gamla","Quneitra (Syria)","Golan","Illegal settlement","","","","","","","","Newly built","Illegal settlement","Jewish","500","","500","","1976","","32.889360","35.684720","no","","","","",""
"Y014","Kefar Haruv","","כפר חרוב","kefar-haruv","Quneitra (Syria)","Golan","Illegal settlement","","","","","","","","Newly built","Illegal settlement","Jewish","400","","400","","1974","","32.762130","35.662800","no","","","","",""
"Y013","Kanaf","","כנף","kanaf","Quneitra (Syria)","Golan","Illegal settlement","","","","","","","","Newly built","Illegal settlement","Jewish","500","","400","100","1991","","32.869650","35.699890","no","","","","",""
"Y012","Haspin","","חספין","haspin","Quneitra (Syria)","Golan","Illegal settlement","","","","","","","","Newly built","Illegal settlement","Jewish","1900","","1900","","1973","","32.845530","35.793760","no","","","","",""
"Y011","Had-Nes","","חד-נס","had-nes","Quneitra (Syria)","Golan","Illegal settlement","","","","","","","","Newly built","Illegal settlement","Jewish","900","","800","100","1989","","32.927390","35.642370","no","","","","",""
"Y010","Giv'at Yo'av","","גבעת יואב","givat-yoav","Quneitra (Syria)","Golan","Illegal settlement","","","","","","","","Newly built","Illegal settlement","Jewish","700","","700","","1968","","32.799120","35.681780","no","","","","",""
"Y009","Geshur","","גשור","geshur","Quneitra (Syria)","Golan","Illegal settlement","","","","","","","","Newly built","Illegal settlement","Jewish","300","","300","","1971","","32.818900","35.717020","no","","","","",""
"Y008","En Ziwan","","עין זיוון","en-ziwan","Quneitra (Syria)","Golan","Illegal settlement","","","","","","","","Newly built","Illegal settlement","Jewish","300","","300","","1968","","33.096540","35.796070","no","","","","",""
"Y007","Eli-Ad","","אלי-עד","eli-ad","Quneitra (Syria)","Golan","Illegal settlement","","","","","","","","Newly built","Illegal settlement","Jewish","400","","400","","1968","","32.805750","35.735520","no","","","","",""
"Y006","El-Rom","","אל -רום","el-rom","Quneitra (Syria)","Golan","Illegal settlement","","","","","","","","Newly built","Illegal settlement","Jewish","400","","400","","1971","","33.180140","35.771330","no","","","","",""
"Y005","Bene Yehuda","","בני יהודה","bene-yehuda","Quneitra (Syria)","Golan","Illegal settlement","","","","","","","","Newly built","Illegal settlement","Jewish","1000","","900","100","1972","","32.798280","35.689460","no","","","","",""
"Y004","Avne Etan","","אבני איתן","avne-etan","Quneitra (Syria)","Golan","Illegal settlement","","","","","","","","Newly built","Illegal settlement","Jewish","700","","700","","1978","","32.823210","35.765200","no","","","","",""
"Y003","Ani'am","","אניעם","aniam","Quneitra (Syria)","Golan","Illegal settlement","","","","","","","","Newly built","Illegal settlement","Jewish","500","","500","","1978","","32.957300","35.740170","no","","","","",""
"Y002","Allone HaBashan","","אלוני הבשן","allone-habashan","Quneitra (Syria)","Golan","Illegal settlement","","","","","","","","Newly built","Illegal settlement","Jewish","400","","400","","1981","","33.043580","35.838640","no","","","","",""
"Y001","Afiq","","אפיק","afiq","Quneitra (Syria)","Golan","Illegal settlement","","","","","","","","Newly built","Illegal settlement","Jewish","300","","300","","1967","","32.778480","35.701950","no","","","","",""
"X312","Sanhedria Murhevet","","סנהדריה המורחבת","sanhedria-murhevet","","East Jerusalem","Illegal settlement","","","","","","","","Newly built","Illegal settlement","Jewish","","","","","1970","","31.802017","35.217962","no","","","","",""
"X311","Ramot","","רמות אלון","ramot","","East Jerusalem","Illegal settlement","","","","","","","","Newly built","Illegal settlement","Jewish","","","","","1974","","31.813439","35.197236","no","","","","",""
"X310","Ramat Shlomo","","רמת שלמה","ramat-shlomo","","East Jerusalem","Illegal settlement","","","","","","","","Newly built","Illegal settlement","Jewish","","","","","1995","","31.810478","35.218047","no","","","","",""
"X309","Ramat Eshkol","","רמת אשכול","ramat-eshkol","","East Jerusalem","Illegal settlement","","","","","","","","Newly built","Illegal settlement","Jewish","","","","","1970","","31.802600","35.223456","no","","","","",""
"X308","Pisgat Ze'ev","","פסגת זאב","pisgat-zeev","","East Jerusalem","Illegal settlement","","","","","","","","Newly built","Illegal settlement","Jewish","","","","","1985","","31.831133","35.232970","no","","","","",""
"X307","Neve Yaakov","النبي يعقوب","נווה יעקב","neve-yaakov-","","East Jerusalem","Illegal settlement","","","","","","","","Newly built","Illegal settlement","Jewish","","","","","1972","","31.841111","35.242500","no","","","","",""
"X306","Ma'alot Dafna","","מעלות דפנה","maalot-dafna","","East Jerusalem","Illegal settlement","","","","","","","","Newly built","Illegal settlement","Jewish","","","","","1972","","31.796209","35.225687","no","","","","",""
"X305","Har Homa, Givat Hamatos","","הר חומה","har-homa,-givat-hamatos","","East Jerusalem","Illegal settlement","","","","","","","","Newly built","Illegal settlement","Jewish","","","","","1997","","31.725278","35.221667","no","","","","",""
"X304","Giv'at Hamivtar","","גבעת המבתר","givat-hamivtar","","East Jerusalem","Illegal settlement","","","","","","","","Newly built","Illegal settlement","Jewish","","","","","1970","","31.803058","35.231286","no","","","","",""
"X303","Gilo","","גילֹה","gilo","","East Jerusalem","Illegal settlement","","","","","","","","Newly built","Illegal settlement","Jewish","","","","","1973","","31.731389","35.186389","no","","","","",""
"X302","French Hill","","הגבעה הצרפתית","french-hill","","East Jerusalem","Illegal settlement","","","","","","","","Newly built","Illegal settlement","Jewish","","","","","1969","","31.805700","35.238992","no","","","","",""
"X301","East Talpiot","","תלפיות מזרח","east-talpiot","","East Jerusalem","Illegal settlement","","","","","","","","Newly built","Illegal settlement","Jewish","","","","","1967","","31.749326","35.227292","no","","","","",""
"X204","Sa-nur","","שא-נור","sa-nur","","West Bank","Illegal settlement","","","","","","","","Built & abandoned","","Jewish","","","","","1982","1905-06-27","32.337111","35.201867","no","","","","",""
"X203","Kaddim","","כדים","kaddim","","West Bank","Illegal settlement","","","","","","","","Built & abandoned","","Jewish","","","","","1983","1905-06-27","32.449169","35.319986","no","","","","",""
"X202","Homesh","","חומש","homesh","","West Bank","Illegal settlement","","","","","","","","Built & abandoned","","Jewish","","","","","1980","1905-06-27","32.308056","35.192500","no","","","","",""
"X201","Gannim","","גנים","gannim","","West Bank","Illegal settlement","","","","","","","","Built & abandoned","","Jewish","","","","","1983","1905-06-27","32.450083","35.337847","no","","","","",""
"X112","Aviya Sonesta","","","aviya-sonesta","","Sinai","Illegal settlement","","","","","","","","Built & abandoned","","Jewish","","","","","1979","1905-06-04","29.490400","34.899400","no","","","","",""
"X111","Pri'el","","פריאל","priel","","Sinai","Illegal settlement","","","","","","","","Built & abandoned","","Jewish","","","","","1978","1905-06-04","","","no","","","","",""
"X110","Holit (Sinai)","","חולית","holit-sinai","","Sinai","Illegal settlement","","","","","","","","Built & abandoned","","Jewish","","","","","1978","1905-06-04","","","no","","","","",""
"X109","Talmei Yosef","","תלמי יוסף","talmei-yosef","","Sinai","Illegal settlement","","","","","","","","Built & abandoned","","Jewish","","","","","1977","1905-06-04","31.210453","34.242647","no","","","","",""
"X108","Sufa (Sinai)","","סופה","sufa-sinai","","Sinai","Illegal settlement","","","","","","","","Built & abandoned","","Jewish","","","","","1974","1905-06-04","31.236269","34.189497","no","","","","",""
"X107","Netiv HaAsara (Sinai)","","נתיב העשרה","netiv-haasara-sinai","","Sinai","Illegal settlement","","","","","","","","Built & abandoned","","Jewish","","","","","1973","1905-06-04","31.213261","34.218614","no","","","","",""
"X106","Avshalom (Sinai)","","אבשלום","avshalom-sinai","","Sinai","Illegal settlement","","","","","","","","Built & abandoned","","Jewish","","","","","1973","1905-06-04","31.212892","34.202350","no","","","","",""
"X105","Ofira","","","ofira","","Sinai","Illegal settlement","","","","","","","","Built & abandoned","","Jewish","","","","","1969","1905-06-04","27.867500","34.295278","no","","","","",""
"X104","Neviot","","נביעות‎","neviot","","Sinai","Illegal settlement","","","","","","","","Built & abandoned","","Jewish","","","","","1969","1905-06-04","29.033333","34.666667","no","","","","",""
"X103","Dikla","","","dikla","","Sinai","Illegal settlement","","","","","","","","Built & abandoned","","Jewish","","","","","1969","1905-06-04","31.219114","34.124200","no","","","","",""
"X102","Di Zahav","","די זהב‎","di-zahav","","Sinai","Illegal settlement","","","","","","","","Built & abandoned","","Jewish","","","","","1967","1905-06-04","28.493056","34.504722","no","","","","",""
"X101","Yamit","","ימית","yamit","","Sinai","Illegal settlement","","","","","","","","Built & abandoned","","Jewish","","","","","1967","1905-06-04","31.275556","34.167222","no","","","","",""
"X021","Kerem Atzmona","","כרם עצמונה","kerem-atzmona","","Gaza","Illegal settlement","","","","","","","","Built & abandoned","","Jewish","","","","","2001","1905-06-27","31.314444","34.267500","no","","","","",""
"X020","Shirat HaYam","","שירת הים","shirat-hayam","","Gaza","Illegal settlement","","","","","","","","Built & abandoned","","Jewish","","","","","2001","1905-06-27","31.363333","34.271111","no","","","","",""
"X019","Pe'at Sade","","פאת שדה","peat-sade","","Gaza","Illegal settlement","","","","","","","","Built & abandoned","","Jewish","","","","","1993","1905-06-27","31.324722","34.240833","no","","","","",""
"X018","Tel Katifa","","תל קטיפא","tel-katifa","","Gaza","Illegal settlement","","","","","","","","Built & abandoned","","Jewish","","","","","1992","1905-06-27","31.404167","34.315833","no","","","","",""
"X017","Dugit","","דוגית","dugit","","Gaza","Illegal settlement","","","","","","","","Built & abandoned","","Jewish","","","","","1990","1905-06-27","31.573889","34.489167","no","","","","",""
"X016","Bedolah","","בדלח","bedolah","","Gaza","Illegal settlement","","","","","","","","Built & abandoned","","Jewish","","","","","1986","1905-06-27","31.329444","34.255833","no","","","","",""
"X015","Rafiah Yam","","רפיח ים","rafiah-yam","","Gaza","Illegal settlement","","","","","","","","Built & abandoned","","Jewish","","","","","1984","1905-06-27","31.316667","34.228889","no","","","","",""
"X014","Kfar Yam","","כפר ים","kfar-yam","","Gaza","Illegal settlement","","","","","","","","Built & abandoned","","Jewish","","","","","1983","1905-06-27","31.352500","34.258611","no","","","","",""
"X013","Gan Or","","גן אור","gan-or","","Gaza","Illegal settlement","","","","","","","","Built & abandoned","","Jewish","","","","","1983","1905-06-27","31.336667","34.259444","no","","","","",""
"X012","Nisanit","","ניסנית","nisanit","","Gaza","Illegal settlement","","","","","","","","Built & abandoned","","Jewish","","","","","1982","1905-06-27","31.561944","34.531667","no","","","","",""
"X011","Gadid","","גדיד","gadid","","Gaza","Illegal settlement","","","","","","","","Built & abandoned","","Jewish","","","","","1982","1905-06-27","31.344167","34.277222","no","","","","",""
"X010","Ele Sinay","","אלי סיני","ele-sinay","","Gaza","Illegal settlement","","","","","","","","Built & abandoned","","Jewish","","","","","1982","1905-06-27","31.583611","34.502500","no","","","","",""
"X009","Slav","","שלו","slav","","Gaza","Illegal settlement","","","","","","","","Built & abandoned","","Jewish","","","","","1980","1905-06-27","31.321944","34.238333","no","","","","",""
"X008","Newe Deqalim","","נוה דקלים","newe-deqalim","","Gaza","Illegal settlement","","","","","","","","Built & abandoned","","Jewish","","","","","1980","1905-06-27","31.356667","34.275000","no","","","","",""
"X007","Ganne Tal (Gaza)","","גני טל","ganne-tal-gaza","","Gaza","Illegal settlement","","","","","","","","Built & abandoned","","Jewish","","","","","1979","1905-06-27","31.373611","34.301667","no","","","","",""
"X006","Bene Azmon","","בני עצמון","bene-azmon","","Gaza","Illegal settlement","","","","","","","","Built & abandoned","","Jewish","","","","","1979","1905-06-27","31.321667","34.251667","no","","","","",""
"X005","Qatif","","קטיף","qatif","","Gaza","Illegal settlement","","","","","","","","Built & abandoned","","Jewish","","","","","1978","1905-06-27","31.375278","34.312778","no","","","","",""
"X004","Nezer Hazzani (Gaza)","","נצר חזני","nezer-hazzani-gaza","","Gaza","Illegal settlement","","","","","","","","Built & abandoned","","Jewish","","","","","1973","1905-06-27","31.380000","34.321944","no","","","","",""
"X003","Nezarim","","נצרים","nezarim","","Gaza","Illegal settlement","","","","","","","","Built & abandoned","","Jewish","","","","","1972","1905-06-27","31.482192","34.413322","no","","","","",""
"X002","Morag","","מורג","morag","","Gaza","Illegal settlement","","","","","","","","Built & abandoned","","Jewish","","","","","1972","1905-06-27","31.308333","34.288056","no","","","","",""
"X001","Kefar Darom","","כפר דרום","kefar-darom","","Gaza","Illegal settlement","","","","","","","","Built & abandoned","","Jewish","","","","","1970","1905-06-27","31.401389","34.360000","no","","","","",""
"U001","Al Homrah","","","al-homrah","","Southern","Unrecognized","","","Village","Palestinian","","","","Remaining","Village","Palestinian","","","","","","","31.263455","35.070789","no","","","","",""
"S005","Mas'ade","","מסעדה","masade","Quneitra (Syria)","Golan","Syrian village","","","","Syrian","","","","Remaining","Village","Syrian","3600","","","3600","","","33.231150","35.757280","no","","","","",""
"S004","Majdal Shams","","מג'דל שמס","majdal-shams","Quneitra (Syria)","Golan","Syrian village","","","","Syrian","","","","Remaining","Village","Syrian","10800","","","10800","","","33.265170","35.770160","no","","","","",""
"S003","Ghajar","","ע'ג'ר","ghajar","Quneitra (Syria)","Golan","Syrian village","","","","Syrian","","","","Remaining","Village","Syrian","2500","","","2500","","","33.270430","35.625080","no","","","","",""
"S002","Ein Qiniyye","","עין קנייא","ein-qiniyye","Quneitra (Syria)","Golan","Syrian village","","","","Syrian","","","","Remaining","Village","Syrian","2000","","","2000","","","33.236940","35.731670","no","","","","",""
"S001","Buq'ata","","בוקעאתא","buqata","Quneitra (Syria)","Golan","Syrian village","","","","Syrian","","","","Remaining","Village","Syrian","6400","","","6400","","","33.201660","35.778760","no","","","","",""
"M006","Bet Zeid","","בית זיד","bet-zeid","","Northern","","","","Settlement","Jewish","","","","Newly built","Settlement","Jewish","100","","100","","1943","","32.701440","35.115180","no","","","","",""
"M005","Qiryat Atta","","קריית אתא","qiryat-atta","Haifa","Haifa","","","","Settlement","Jewish","","","","Remaining","City","Jewish","56500","","52400","4100","1925","","32.809842","35.103300","yes","","","","",""
"M004","Migdal HaEmeq","","מגדל העמק","migdal-haemeq","","Northern","","","","","","","","","Newly built","City","Jewish","25100","","22700","2400","1952","","32.678020","35.243250","no","","","","",""
"M003","Bet Lehem HaGelilit","","בית לחם הגלילית","bet-lehem-hagelilit","","Northern","","","","","","","","","Newly built","Settlement","Jewish","800","","800","","1948","","32.735010","35.190790","no","","","","",""
"M002","Barqay","","ברקאי","barqay","","Haifa","","","","","","","","","Newly built","Settlement","Jewish","600","","500","100","1949","","32.475100","35.029130","no","","","","",""
"M001","Allone Abba","","אלוני אבא","allone-abba","","Northern","","","","","","","","","Newly built","Settlement","Jewish","1000","","1000","","1948","","32.729510","35.170840","no","","","","",""
"A009","Salim","سالم","סאלם","salim-jenin","Jenin","Haifa","","","","Village","Palestinian","","","","Remaining","Village","Palestinian","","","","","","","32.540665","35.201204","yes","","","","",""
"A008","Musheirifa","المشيرفة","מושיריפה","musheirifa","Jenin","Haifa","","","","Village","Palestinian","","","","Remaining","Village","Palestinian","","","","","","","32.553718","35.154033","yes","","","","",""
"A007","Musmus","مصمص","מוסמוס","musmus","Jenin","Haifa","","","","Village","Palestinian","","","","Remaining","Village","Palestinian","","","","","","","32.543622","35.155459","yes","","","","",""
"A006","Ein Ibrahim","","","ein-ibrahim","Jenin","Haifa","","","","Village","Palestinian","","","","Remaining","Village","Palestinian","","","","","","","32.535799","35.148138","yes","","","","",""
"A005","Al Murtafi'a","","","al-murtafia","Jenin","Haifa","","","","Community","Palestinian","","","","Remaining","Village","Palestinian","","","","","","","32.545982","35.176970","yes","","","","",""
"A004","Al Bayar","","","al-bayar","Jenin","Haifa","","","","Community","Palestinian","","","","Remaining","Village","Palestinian","","","","","","","32.514930","35.111999","yes","","","","",""
"A003","Al Bayada","البياضة","ביאדה","al-bayada","Jenin","Haifa","","","","Community","Palestinian","","","","Remaining","Village","Palestinian","","","","","","","32.542366","35.169923","yes","","","","",""
"A002","Ara","عاره","ערה","ara","Jenin","Haifa","","","","Village","Palestinian","","","","Remaining","Village","Palestinian","","","","","","","32.504709","35.079864","yes","","","","",""
"A001","Aqada","","","aqada","Jenin","Haifa","","","","Village","Palestinian","","","","Remaining","Village","Palestinian","","","","","","","32.542366","35.169923","yes","","","","",""
"11769","Awajan","","","awajan","","Southern","Unrecognized","","","Village","Palestinian","","","","Remaining","Village","Palestinian","","","","","","","31.307448","34.846573","no","","","","4871",""
"11768","Atir","","","atir","","Southern","Unrecognized","","","Village","Palestinian","","","","Remaining","Village","Palestinian","","","","","","","31.323140","35.026217","no","","","","4870",""
"11767","Abdeh","","","abdeh","","Southern","Unrecognized","","","Village","Palestinian","","","","Remaining","Village","Palestinian","","","","","","","30.807100","34.755936","no","","","","4869",""
"11766","Zhayyih","","","zhayyih","","Southern","Unrecognized","","","Community","Palestinian","","","","Remaining","Village","Palestinian","","","","","","","31.425367","34.769239","no","","","","4868",""
"11765","Wadi Aricha","","","wadi-aricha","","Southern","Unrecognized","","","Village","Palestinian","","","","Remaining","Village","Palestinian","","","","","","","30.686124","34.782905","no","","","","4867",""
"11764","Wadi Al Na'am","","","wadi-al-naam","","Southern","Unrecognized","","","Village","Palestinian","","","","Remaining","Village","Palestinian","","","","","","","31.147337","34.820566","no","","","","4866",""
"11763","Wadi Al Meshash","","","wadi-al-meshash","","Southern","Unrecognized","","","Village","Palestinian","","","","Remaining","Village","Palestinian","","","","","","","31.083518","34.844513","no","","","","4865",""
"11762","Um-Ratam","","","um-ratam","","Southern","Unrecognized","","","Village","Palestinian","","","","Remaining","Village","Palestinian","","","","","","","31.121219","35.031796","no","","","","4864",""
"11761","Umm Namila","","","umm-namila","","Southern","Unrecognized","","","Community","Palestinian","","","","Remaining","Village","Palestinian","","","","","","","31.412549","34.772072","no","","","","4863",""
"11760","Umm al-Hiran","","","umm-al-hiran","","Southern","Unrecognized","","","Village","Palestinian","","","","Remaining","Village","Palestinian","","","","","","","31.316835","34.997892","no","","","","4862",""
"11759","Twail Abu Jarwal","","","twail-abu-jarwal","","Southern","Unrecognized","","","Village","Palestinian","","","","Remaining","Village","Palestinian","","","","","","","31.333836","34.802606","no","","","","4861",""
"11758","Tal Arad","","","tal-arad","","Southern","Unrecognized","","","Village","Palestinian","","","","Remaining","Village","Palestinian","","","","","","","31.298061","35.121746","no","","","","4860",""
"11757","Tal al-Malah","","","tal-al-malah","","Southern","Unrecognized","","","Village","Palestinian","","","","Remaining","Village","Palestinian","","","","","","","31.236289","35.010853","no","","","","4859",""
"11756","Sawawin","","","sawawin","","Southern","Unrecognized","","","Village","Palestinian","","","","Remaining","Village","Palestinian","","","","","","","31.169445","34.903972","no","","","","4858",""
"11755","Sa'wa","","","sawa","","Southern","Unrecognized","","","Village","Palestinian","","","","Remaining","Village","Palestinian","","","","","","","31.285946","34.966013","no","","","","4857",""
"11754","Rachama","","","rachama","","Southern","Unrecognized","","","Village","Palestinian","","","","Remaining","Village","Palestinian","","","","","","","31.009983","34.950085","no","","","","4856",""
"11753","Nafhah","","","nafhah","","Southern","Unrecognized","","","Village","Palestinian","","","","Remaining","Village","Palestinian","","","","","","","30.751647","34.776707","no","","","","4855",""
"11751","Khirbat al-Batal","","","khirbat-al-batal","","Southern","Unrecognized","","","Village","Palestinian","","","","Remaining","Village","Palestinian","","","","","","","31.247443","34.921417","no","","","","4853",""
"11750","Khasim Zannih","","","khasim-zannih","","Southern","Unrecognized","","","Village","Palestinian","","","","Remaining","Village","Palestinian","","","","","","","31.209278","34.888287","no","","","","4852",""
"11749","Bir Al Mahash","","","bir-al-mahash","","Southern","Unrecognized","","","Village","Palestinian","","","","Remaining","Village","Palestinian","","","","","","","31.199441","34.956264","no","","","","4851",""
"11748","Bir Al Chamam","","","bir-al-chamam","","Southern","Unrecognized","","","Village","Palestinian","","","","Remaining","Village","Palestinian","","","","","","","31.223225","34.901505","no","","","","4850",""
"11747","Bat as-Saray'ih","","","bat-as-sarayih","","Southern","Unrecognized","","","Village","Palestinian","","","","Remaining","Village","Palestinian","","","","","","","31.241683","35.015960","no","","","","4849",""
"11746","Az-Zarura","","","az-zarura","","Southern","Unrecognized","","","Village","Palestinian","","","","Remaining","Village","Palestinian","","","","","","","31.233353","35.120716","no","","","","4848",""
"11745","Az-Zarnog","","","az-zarnog","","Southern","Unrecognized","","","Village","Palestinian","","","","Remaining","Village","Palestinian","","","","","","","31.207222","34.923134","no","","","","4847",""
"11744","As-Sirrah","","","as-sirrah","","Southern","Unrecognized","","","Village","Palestinian","","","","Remaining","Village","Palestinian","","","","","","","31.240692","35.031195","no","","","","4846",""
"11743","As-Sir","","","as-sir","","Southern","Unrecognized","","","Village","Palestinian","","","","Remaining","Village","Palestinian","","","","","","","31.209168","34.817863","no","","","","4845",""
"11742","As-Sdir","","","as-sdir","","Southern","Unrecognized","","","Village","Palestinian","","","","Remaining","Village","Palestinian","","","","","","","31.180130","34.980469","no","","","","4844",""
"11740","Al Mtaher","","","al-mtaher","","Southern","Unrecognized","","","Village","Palestinian","","","","Remaining","Village","Palestinian","","","","","","","31.187784","35.083357","no","","","","4842",""
"11739","Al Msadiyyah","","","al-msadiyyah","","Southern","Unrecognized","","","Village","Palestinian","","","","Remaining","Village","Palestinian","","","","","","","31.339123","34.858418","no","","","","4841",""
"11738","Al Mekiman","","","al-mekiman","","Southern","Unrecognized","","","Village","Palestinian","","","","Remaining","Village","Palestinian","","","","","","","31.298061","34.852409","no","","","","4840",""
"11737","Al Madbach","","","al-madbach","","Southern","Unrecognized","","","Village","Palestinian","","","","Remaining","Village","Palestinian","","","","","","","31.181011","34.949913","no","","","","4839",""
"11736","Al Grin","","","al-grin","","Southern","Unrecognized","","","Village","Palestinian","","","","Remaining","Village","Palestinian","","","","","","","31.283172","34.930759","no","","","","4838",""
"11735","Al Gazzah","","","al-gazzah","","Southern","Unrecognized","","","Village","Palestinian","","","","Remaining","Village","Palestinian","","","","","","","31.210306","35.136852","no","","","","4837",""
"11734","Al Gatamat","","","al-gatamat","","Southern","Unrecognized","","","Village","Palestinian","","","","Remaining","Village","Palestinian","","","","","","","31.173043","35.098314","no","","","","4836",""
"11733","Al Gara","","","al-gara","","Southern","Unrecognized","","","Village","Palestinian","","","","Remaining","Village","Palestinian","","","","","","","31.238080","34.968280","no","","","","4835",""
"11732","Al Forah","","","al-forah","","Southern","Unrecognized","","","Village","Palestinian","","","","Remaining","Village","Palestinian","","","","","","","31.224693","35.167580","no","","","","4834",""
"11731","Al Bhirah","","","al-bhirah","","Southern","Unrecognized","","","Village","Palestinian","","","","Remaining","Village","Palestinian","","","","","","","31.206635","35.088615","no","","","","4833",""
"11730","Al Batil","","","al-batil","","Southern","Unrecognized","","","Village","Palestinian","","","","Remaining","Village","Palestinian","","","","","","","31.360307","34.740744","no","","","","4832",""
"11729","Al Bat","","","al-bat","","Southern","Unrecognized","","","Village","Palestinian","","","","Remaining","Village","Palestinian","","","","","","","31.267987","35.014114","no","","","","4831",""
"11728","Al Bagar","","","al-bagar","","Southern","Unrecognized","","","Village","Palestinian","","","","Remaining","Village","Palestinian","","","","","","","30.848319","34.734389","no","","","","4830",""
"11727","Ash Sheikh Sa'd","الشَيْخ سَعْد","","ash-sheikh-sad","Jerusalem","West Bank","","","","Village","Palestinian","","","","Remaining","Village","Palestinian","2278","2278","","","","","31.737019","35.257073","yes","","","","4829",""
"11726","As Sawahira ash Sharqiy","السَواحِرَة الشَرْقِيَّة","","as-sawahira-ash-sharqiy","","West Bank","","","","Village","Palestinian","","","","Remaining","Village","Palestinian","6780","6780","","","","","31.744861","35.270767","no","","","","4828",""
"11725","Arab al Jahalin","عَرَب الجَهَالين","","arab-al-jahalin-","","West Bank","","","","Village","Palestinian","","","","Remaining","Village","Palestinian","843","843","","","","","31.762267","35.260333","no","","","","4827",""
"11722","Az Za'ayyem","الزْعَيِّمْ","","az-zaayyem","Jerusalem","West Bank","","","","Village","Palestinian","","","","Remaining","Village","Palestinian","3977","3977","","","","","31.790332","35.266788","yes","","","","4825",""
"11721","Al Ka'abina","الكَعابِنَه (تَجَمُّع بَدَوي)","","al-kaabina","","West Bank","","","","Village","Palestinian","","","","Remaining","Village","Palestinian","811","811","","","","","31.811012","35.261054","no","","","","4824",""
"11712","Kharayib Umm al Lahim","خَرائِب أمُّ اللَحْمْ","","kharayib-umm-al-lahim","Jerusalem","West Bank","","","","Village","Palestinian","","","","Remaining","Village","Palestinian","424","424","","","","","31.840399","35.093398","yes","","","","4823",""
"11701","Qalandiya Camp","مُخَيَّمْ قَلَنْدِيَا","","qalandiya-camp","","West Bank","Refugee camp","","","Refugee camp","Palestinian","","","","Newly built","Refugee camp","Palestinian","10324","10324","","","","","31.867923","35.228748","no","","","","4822",""
"11679","'Arab ar Rashayida","عَرَبْ الرَشايْدِة","","arab-ar-rashayida","","West Bank","","","","Village","Palestinian","","","","Remaining","Village","Palestinian","1829","1829","","","","","31.568341","35.234334","no","","","","4821",""
"11678","Kisan","كِيسَان","","kisan","Jerusalem","West Bank","","","","Community","Palestinian","","","","Remaining","Village","Palestinian","571","571","","","","","31.610350","35.223565","yes","","","","4820",""
"11677","Al Maniya","المَنِيِّة","","al-maniya","Hebron","West Bank","","","","Village","Palestinian","","","","Remaining","Village","Palestinian","1274","1274","","","","","31.620691","35.217571","yes","","","","4819",""
"11675","Marah Rabah","مَرَاح رَبَاح","","marah-rabah","Jerusalem","West Bank","","","","Community","Palestinian","","","","Remaining","Village","Palestinian","1661","1661","","","","","31.634464","35.187913","yes","","","","4818",""
"11674","Tuqu'","تُقُوع","","tuqu","Jerusalem","West Bank","","","","Community","Palestinian","","","","Remaining","Village","Palestinian","11177","11177","","","","","31.634277","35.211518","yes","","2102","","4817","GeoPoints/Taqu__2102"
"11673","Al Manshiya","المَنْشِيَّة","","al-manshiya","","West Bank","","","","Village","Palestinian","","","","Remaining","Village","Palestinian","545","545","","","","","31.641793","35.193436","no","","","","4816",""
"11672","Umm Salamuna","أُمُّ سَلْمُونَة","","umm-salamuna","Jerusalem","West Bank","","","","Community","Palestinian","","","","Remaining","Village","Palestinian","1189","1189","","","","","31.645111","35.165995","yes","","","","4815",""
"11671","Marah Ma'alla","مَراح مَعَلاَّ","","marah-maalla","Jerusalem","West Bank","","","","Community","Palestinian","","","","Remaining","Village","Palestinian","862","862","","","","","31.650452","35.175791","yes","","","","4814",""
"11670","Jurat ash Sham'a","جْورَة الشَمْعَة","","jurat-ash-shama","Jerusalem","West Bank","","","","Village","Palestinian","","","","Remaining","Village","Palestinian","1877","1877","","","","","31.650235","35.169369","yes","","","","4813",""
"11669","Wadi an Nis","وادي النِيصْ","","wadi-an-nis","","West Bank","","","","Community","Palestinian","","","","Remaining","Village","Palestinian","972","972","","","","","31.653751","35.161300","no","","","","4812",""
"11668","Al Ma'sara","المَعْصَرَة","","al-masara","Jerusalem","West Bank","","","","Village","Palestinian","","","","Remaining","Village","Palestinian","1011","1011","","","","","31.657188","35.181235","yes","","","","4811",""
"11667","Khallet al Haddad","خَلِّة الحَدَّادْ","","khallet-al-haddad","Jerusalem","West Bank","","","","Community","Palestinian","","","","Remaining","Village","Palestinian","512","512","","","","","31.657272","35.190030","yes","","","","4810",""
"11666","Khallet Sakariya","خَلِّةْ سَكَارْيَا","","khallet-sakariya","Jerusalem","West Bank","","","","Community","Palestinian","","","","Remaining","Village","Palestinian","233","233","","","","","31.663117","35.123664","yes","","","","4809",""
"11665","Jubbet adh Dhib","جُبِّة الذِيب","","jubbet-adh-dhib","","West Bank","","","","Village","Palestinian","","","","Remaining","Village","Palestinian","204","204","","","","","31.663562","35.247843","no","","","","4808",""
"11664","Wadi Rahhal","وادي رَحَّال","","wadi-rahhal","Jerusalem","West Bank","","","","Community","Palestinian","","","","Remaining","Village","Palestinian","1786","1786","","","","","31.665185","35.168526","yes","","","","4807",""
"11663","Jannatah","جناتة (بيت فلوح)","","jannatah","Jerusalem","West Bank","","","","Community","Palestinian","","","","Remaining","Village","Palestinian","6816","6816","","","","","31.670418","35.218932","yes","","","","4806",""
"11662","Za'tara","زَعْتَرَة","","zatara","Jerusalem","West Bank","","","","Community","Palestinian","","","","Remaining","Village","Palestinian","7915","7915","","","","","31.678365","35.256933","yes","","3655","","4805","GeoPoints/Kh__Bayt__Ta_mir_3655"
"11660","Khallet al Louza","خَلِّةْ اللُوزَة","","khallet-al-louza","Jerusalem","West Bank","","","","Community","Palestinian","","","","Remaining","Village","Palestinian","727","727","","","","","31.674074","35.199592","yes","","","","4804",""
"11659","Beit Ta'mir","بِيت تَعْمَر","","beit-tamir","Jerusalem","West Bank","","","","Village","Palestinian","","","","Remaining","Village","Palestinian","1547","1547","","","","","31.678005","35.234336","yes","","","","4803",""
"11656","Ash Shawawra","الشَوَاوْرَة","","ash-shawawra","","West Bank","","","","Village","Palestinian","","","","Remaining","Village","Palestinian","4703","4703","","","","","31.690408","35.271679","no","","","","4802",""
"11655","Hindaza","هِنْدَازَة","","hindaza","Jerusalem","West Bank","","","","Village","Palestinian","","","","Remaining","Village","Palestinian","6040","6040","","","","","31.692658","35.205873","yes","","","","4801",""
"11654","Ad Duheisha Camp","مُخَيَّمْ الدُهَيْشَة","","ad-duheisha-camp","","West Bank","Refugee camp","","","Refugee camp","Palestinian","","","","Newly built","Refugee camp","Palestinian","10995","10995","","","","","31.693208","35.184939","no","","","","4800",""
"11652","Ad Doha","الدْوحَة","","ad-doha","","West Bank","","","","Village","Palestinian","","","","Remaining","Village","Palestinian","12275","12275","","","","","31.700527","35.186008","no","","","","4799",""
"11647","Dar  Salah","دار صلاح","","dar -salah","","West Bank","","","","Village","Palestinian","","","","Remaining","Village","Palestinian","4245","4245","","","","","31.713520","35.272270","no","","6796","","4798","GeoPoints/Dar_Salah_6796"
"11645","Bir Onah","بئر عونه","","bir-onah","","West Bank","","","","Village","Palestinian","","","","Remaining","Village","Palestinian","846","846","","","","","31.723081","35.189742","no","","","","4797",""
"11644","Khallet Hamameh","خلة حمامة","","khallet-hamameh","","West Bank","","","","Village","Palestinian","","","","Remaining","Village","Palestinian","1781","1781","","","","","31.721144","35.194238","no","","","","4796",""
"11643","Al Haddadiya","الحَدَّادِيَّة","","al-haddadiya","Jerusalem","West Bank","","","","Village","Palestinian","","","","Remaining","Village","Palestinian","68","68","","","","","31.707910","35.293887","yes","","","","4795",""
"11642","Al Khas","الخَاص","","al-khas","Jerusalem","West Bank","","","","Village","Palestinian","","","","Remaining","Village","Palestinian","496","496","","","","","31.716389","35.250728","yes","","","","4794",""
"11641","Al 'Aza Camp","مُخَيَّمْ العَزَّة","","al-aza-camp","Jerusalem","West Bank","Refugee camp","","","Refugee camp","Palestinian","","","","Newly built","Refugee camp","Palestinian","1924","1924","","","","","31.715474","35.201560","no","","","","4793",""
"11640","Khallet an Nu'man","خَلَّة النُعْمَان","","khallet-an-numan","","West Bank","","","","Village","Palestinian","","","","Remaining","Village","Palestinian","218","218","","","","","31.717590","35.242090","no","","","","4792",""
"11639","'Ayda Camp","مُخَيَّمْ عايدَة","","ayda-camp","Jerusalem","West Bank","Refugee camp","","","Refugee camp","Palestinian","","","","Newly built","Refugee camp","Palestinian","3311","3311","","","","","31.719324","35.198607","no","","","","4791",""
"11636","Al Walaja","الوَلَجَة","","al-walaja-","Jerusalem","West Bank","","","","Village","Palestinian","","","","Newly built","Village","Palestinian","2569","2569","","","","","31.730434","35.163366","no","","","","4789",""
"11635","Wadi as Salqa"," وادِي السَلْقَا","","wadi-as-salqa","Gaza","Gaza","","","","Community","Palestinian","","","","Remaining","Village","Palestinian","6145","6145","","","","","31.403541","34.341148","yes","","","","4788",""
"11634","Al Musaddar","المُصَدَّر","","al-musaddar","","Gaza","","","","Village","Palestinian","","","","Remaining","Village","Palestinian","2491","2491","","","","","31.416866","34.372326","no","","","","4787",""
"11632","Al Maghazi ","المَغَازِي","","al-maghazi ","Beersheba","Gaza","","","","Village","Palestinian","","","","Remaining","Village","Palestinian","8696","8696","","","","","31.414277","34.377820","yes","","","","4786",""
"11631","Al Maghazi Camp","مُخَيَّم المَغَازِي","","al-maghazi-camp","","Gaza","Refugee camp","","","Refugee camp","Palestinian","","","","Newly built","Refugee camp","Palestinian","21380","21380","","","","","31.422353","34.383847","no","","","","4785",""
"11630","Deir al Balah Camp","مُخَيَّم دِير البَلح","","deir-al-balah-camp","Gaza","Gaza","Refugee camp","","","Refugee camp","Palestinian","","","","Newly built","Refugee camp","Palestinian","8563","8563","","","","","31.422038","34.336522","no","","","","4784",""
"11629","Az Zawayda","الزَوايْدَة","","az-zawayda","","Gaza","","","","Village","Palestinian","","","","Remaining","City","Palestinian","22530","22530","","","","","31.430394","34.372206","no","","","","4783",""
"11628","Al Bureij ","البُرَيْج","","al-bureij ","Beersheba","Gaza","","","","Village","Palestinian","","","","Remaining","Village","Palestinian","13099","13099","","","","","31.432230","34.404734","yes","","","","4782",""
"11627","Al Bureij Camp","مُخَيَّم البُرَيْج","","al-bureij-camp","","Gaza","Refugee camp","","","Refugee camp","Palestinian","","","","Newly built","Refugee camp","Palestinian","31932","31932","","","","","31.438700","34.401585","no","","","","4781",""
"11625","An Nuseirat Camp","مُخَيَّم النُصَيْرَات","","an-nuseirat-camp","","Gaza","Refugee camp","","","Refugee camp","Palestinian","","","","Newly built","Refugee camp","Palestinian","37366","37366","","","","","31.448967","34.391296","no","","","","4779",""
"11624","Juhor ad Dik","جُحْر الدِيك","","juhor-ad-dik","","Gaza","","","","Village","Palestinian","","","","Remaining","Village","Palestinian","3795","3795","","","","","31.454124","34.427508","no","","","","4778",""
"11622","Madinat Ezahra","مدينة الزهراء","","madinat-ezahra","Gaza","Gaza","","","","Village","Palestinian","","","","Newly built","Village","Palestinian","4010","4010","","","","","31.472748","34.398982","no","","","","4776",""
"11620","Ash Shati' Camp","مُخَيَّم الشَاطِىء","","ash-shati-camp","","Gaza","Refugee camp","","","Refugee camp","Palestinian","","","","Newly built","Refugee camp","Palestinian","45033","45033","","","","","31.532764","34.444998","no","","","","4775",""
"11619","Arab al Fureijat","عَرَب الفُرَيْجَات","","arab-al-fureijat","","West Bank","","","","Village","Palestinian","","","","Remaining","Village","Palestinian","755","755","","","","","31.356200","34.919950","no","","","","4774",""
"11618","Imneizil","إِمنيزِل","","imneizil","","West Bank","","","","Village","Palestinian","","","","Remaining","Village","Palestinian","515","515","","","","","31.371305","35.105674","no","","","","4773",""
"11617","Khirbat al Fakheit","خِرْبِة الفَخِيت","","khirbat-al-fakheit","","West Bank","","","","Village","Palestinian","","","","Remaining","Village","Palestinian","305","305","","","","","31.377107","35.166230","no","","","","4772",""
"11616","Ar Ramadin","الرَماضِين","","ar-ramadin","","West Bank","","","","Village","Palestinian","","","","Remaining","Village","Palestinian","4333","4333","","","","","31.378514","34.914397","no","","","","4771",""
"11615","Khirbat Tawil ash Shih","خِرْبِة طَويل الشِيح","","khirbat-tawil-ash-shih","","West Bank","","","","Village","Palestinian","","","","Remaining","Village","Palestinian","240","240","","","","","31.389871","35.211685","no","","","","4770",""
"11614","Wadi Al Amayer","وادي العماير","","wadi-al-amayer","","West Bank","","","","Village","Palestinian","","","","Remaining","Village","Palestinian","635","635","","","","","31.385495","35.079163","no","","","","4769",""
"11612","Mantiqat Shi'b al Batin","مَنْطِقَة شِعِب البَطِن","","mantiqat-shib-al-batin","","West Bank","","","","Village","Palestinian","","","","Remaining","Village","Palestinian","181","181","","","","","31.394509","35.132590","no","","","","4768",""
"11611","Anab al Kabir","عِنَّاب الكَبِير","","anab-al-kabir","","West Bank","","","","Village","Palestinian","","","","Remaining","Village","Palestinian","442","442","","","","","31.397774","34.927604","no","","","","4767",""
"11610","An Najada","النَجادَة","","an-najada","","West Bank","","","","Village","Palestinian","","","","Remaining","Village","Palestinian","545","545","","","","","31.408109","35.212391","no","","","","4766",""
"11609","Ma'in","مَعِين","","main","","West Bank","","","","Village","Palestinian","","","","Remaining","Village","Palestinian","606","606","","","","","31.410349","35.132294","no","","","","4765",""
"11608","At Tuwani","التَوانِي","","at-tuwani","","West Bank","","","","Village","Palestinian","","","","Remaining","Village","Palestinian","431","431","","","","","31.412845","35.153335","no","","","","4764",""
"11606","Khallet Salih","خَلِّةْ صَالِح","","khallet-salih","","West Bank","","","","Village","Palestinian","","","","Remaining","Village","Palestinian","1443","1443","","","","","31.419785","35.115548","no","","","","4763",""
"11605","Al Karmil","الكَرْمِل","","al-karmil","","West Bank","","","","Village","Palestinian","","","","Remaining","Village","Palestinian","4940","4940","","","","","31.426041","35.131552","no","","","","4762",""
"11604","Um Al Khair","ام الخير ","","um-al-khair","","West Bank","","","","Village","Palestinian","","","","Remaining","Village","Palestinian","681","681","","","","","31.435244","34.916995","no","","","","4761",""
"11603","Al Burj","البُرْج","","al-burj","","West Bank","","","","Village","Palestinian","","","","Remaining","Village","Palestinian","3405","3405","","","","","31.435244","34.916995","no","","","","4760",""
"11602","Umm Lasafa","أمُّ لصَفَا","","umm-lasafa","","West Bank","","","","Village","Palestinian","","","","Remaining","Village","Palestinian","1126","1126","","","","","31.436220","35.156344","no","","","","4759",""
"11601","Rabud","رَابُود","","rabud","","West Bank","","","","Village","Palestinian","","","","Remaining","Village","Palestinian","2987","2987","","","","","31.438978","35.016510","no","","","","4758",""
"11600","Kurza","كُرْزَة","","kurza","","West Bank","","","","Village","Palestinian","","","","Remaining","Village","Palestinian","1018","1018","","","","","31.440666","34.999035","no","","","","4757",""
"11599","Khashem Adaraj (Al Hathaleen)","خَشْم الدرج (الهذالين)","","khashem-adaraj-al-hathaleen","","West Bank","","","","Village","Palestinian","","","","Remaining","Village","Palestinian","800","800","","","","","31.429283","35.243995","no","","","","4756",""
"11598","Ad Deirat","الدِيرَات","","ad-deirat","","West Bank","","","","Village","Palestinian","","","","Remaining","Village","Palestinian","1050","1050","","","","","31.443464","35.162286","no","","","","4755",""
"11596","Om Al Amad (Sahel Wadi Elma)","أم العمد (سهل واد الماء)","","om-al-amad-sahel-wadi-elma","","West Bank","","","","Village","Palestinian","","","","Remaining","Village","Palestinian","201","201","","","","","31.453568","35.135391","no","","","","4754",""
"11595","Kheroshewesh Wal Hadedeyah","خيروشيوش والحديدية","","kheroshewesh-wal-hadedeyah","","West Bank","","","","Village","Palestinian","","","","Remaining","Village","Palestinian","501","501","","","","","31.441747","35.129588","no","","","","4753",""
"11594","Khallet al Maiyya","خَلِّةْ المَيِّة","","khallet-al-maiyya","","West Bank","","","","Village","Palestinian","","","","Remaining","Village","Palestinian","1865","1865","","","","","31.442287","35.144763","no","","","","4752",""
"11593","Om Ashoqhan","أم الشقحان","","om-ashoqhan","","West Bank","","","","Village","Palestinian","","","","Remaining","Village","Palestinian","391","391","","","","","31.448720","35.138776","no","","","","4751",""
"11592","Om Adaraj (Arab Al Ka’abneh)","أم الدرج (عرب الكعابنه)","","om-adaraj-arab-al-kaabneh","","West Bank","","","","Village","Palestinian","","","","Remaining","Village","Palestinian","1074","1074","","","","","31.445492","35.201186","no","","","","4750",""
"11591","Beit 'Amra","بِيت عَمْرَة","","beit-amra","","West Bank","","","","Village","Palestinian","","","","Remaining","Village","Palestinian","2859","2859","","","","","31.449404","35.048267","no","","","","4749",""
"11590","Karma","كَرْمَة","","karma","","West Bank","","","","Village","Palestinian","","","","Remaining","Village","Palestinian","1830","1830","","","","","31.451269","35.027272","no","","","","4748",""
"11589","Beit ar Rush al Fauqa","بِيت الرُوشْ الفُوقا","","beit-ar-rush-al-fauqa","","West Bank","","","","Village","Palestinian","","","","Remaining","Village","Palestinian","1293","1293","","","","","31.451006","34.927188","no","","","","4747",""
"11588","Beit Mirsim","بِيت مِرْسِم","","beit-mirsim","","West Bank","","","","Village","Palestinian","","","","Remaining","Village","Palestinian","420","420","","","","","31.450582","34.917689","no","","","","4746",""
"11587","Hadab al 'Alaqa","حَدْبْ العَلَقَة","","hadab-al-alaqa","","West Bank","","","","Village","Palestinian","","","","Remaining","Village","Palestinian","847","847","","","","","31.454406","34.995385","no","","","","4745",""
"11586","Beit ar Rush at Tahta","بِيت الرُوشْ التَحْتَا","","beit-ar-rush-at-tahta","","West Bank","","","","Village","Palestinian","","","","Remaining","Village","Palestinian","493","493","","","","","31.462859","34.936499","no","","","","4744",""
"11585","Al Buweib","البُوَيْب","","al-buweib","","West Bank","","","","Village","Palestinian","","","","Remaining","Village","Palestinian","802","802","","","","","31.464603","35.156544","no","","","","4743",""
"11584","Imreish","إمرِيش","","imreish","","West Bank","","","","Village","Palestinian","","","","Remaining","Village","Palestinian","2199","2199","","","","","31.468293","35.011536","no","","","","4742",""
"11583","Khallet al 'Aqed","خَلِّةْ العَقْد","","khallet-al-aqed","","West Bank","","","","Village","Palestinian","","","","Remaining","Village","Palestinian","359","359","","","","","31.468491","34.986522","no","","","","4741",""
"11582","Deir al 'Asal al Fauqa","دِير العَسَل الفُوقا","","deir-al-asal-al-fauqa","","West Bank","","","","Village","Palestinian","","","","Remaining","Village","Palestinian","2110","2110","","","","","31.467703","34.938436","no","","","","4740",""
"11581","Zif","زِيفْ","","zif","","West Bank","","","","Village","Palestinian","","","","Remaining","Village","Palestinian","1120","1120","","","","","31.466983","35.137628","no","","","","4739",""
"11579","Deir Razih","دِير رَازِح","","deir-razih","","West Bank","","","","Village","Palestinian","","","","Remaining","Village","Palestinian","354","354","","","","","31.465379","35.040996","no","","","","4738",""
"11578","As Sura","الصُرَّة","","as-sura","","West Bank","","","","Village","Palestinian","","","","Remaining","Village","Palestinian","2542","2542","","","","","31.470456","34.999071","no","","","","4737",""
"11577","Wadi ash Shajina","وادي الشَاجِنَة","","wadi-ash-shajina","","West Bank","","","","Village","Palestinian","","","","Remaining","Village","Palestinian","944","944","","","","","31.469518","35.031874","no","","","","4736",""
"11576","Al Heila","الحِيلَة","","al-heila","","West Bank","","","","Village","Palestinian","","","","Remaining","Village","Palestinian","1686","1686","","","","","31.472106","35.108224","no","","","","4735",""
"11575","Deir al 'Asal at Tahta","دِير العَسَل التَحْتَا","","deir-al-asal-at-tahta","","West Bank","","","","Village","Palestinian","","","","Remaining","Village","Palestinian","733","733","","","","","31.473251","34.944975","no","","","","4734",""
"11574","Hadab al Fawwar"," حَدَبْ ألفَوَّار","","hadab-al-fawwar","","West Bank","","","","Village","Palestinian","","","","Remaining","Village","Palestinian","2533","2533","","","","","31.477176","35.054617","no","","","","4733",""
"11573","Marah al Baqqar","مَراح البَقَّار","","marah-al-baqqar","","West Bank","","","","Village","Palestinian","","","","Remaining","Village","Palestinian","284","284","","","","","31.475978","34.984456","no","","","","4732",""
"11572","Al Majd","المَجْد","","al-majd","","West Bank","","","","Village","Palestinian","","","","Remaining","Village","Palestinian","2542","2542","","","","","31.480676","34.952121","no","","","","4731",""
"11571","Al Fawwar Camp","مُخَيَّمْ الفَوَّار","","al-fawwar-camp","","West Bank","Refugee camp","","","Refugee camp","Palestinian","","","","Newly built","Refugee camp","Palestinian","8642","8642","","","","","31.479763","35.064355","no","","","","4730",""
"11570","Tarrama","طَرَّامَة","","tarrama","","West Bank","","","","Village","Palestinian","","","","Remaining","Village","Palestinian","833","833","","","","","31.480511","35.032346","no","","","","4729",""
"11569","Khursa","خُرَسا","","khursa","","West Bank","","","","Village","Palestinian","","","","Remaining","Village","Palestinian","4543","4543","","","","","31.482573","35.017340","no","","","","4728",""
"11568","Fuqeiqis","فْقِيقِيس","","fuqeiqis","","West Bank","","","","Village","Palestinian","","","","Remaining","Village","Palestinian","358","358","","","","","31.488873","34.986829","no","","","","4727",""
"11567","Wadi 'Ubeid","وادي عُبَيْد","","wadi-ubeid","","West Bank","","","","Village","Palestinian","","","","Remaining","Village","Palestinian","172","172","","","","","31.490615","35.006381","no","","","","4726",""
"11566","Khirbat Salama","خِرْبِة سَلامَة","","khirbat-salama","","West Bank","","","","Village","Palestinian","","","","Remaining","Village","Palestinian","490","490","","","","","31.491080","34.997943","no","","","","4725",""
"11565","Sikka","سِكَّة","","sikka","","West Bank","","","","Village","Palestinian","","","","Remaining","Village","Palestinian","1129","1129","","","","","31.491429","34.943336","no","","","","4724",""
"11564","Qalqas","قَلْقَس","","qalqas","Hebron","West Bank","","","","Community","Palestinian","","","","Remaining","Village","Palestinian","1517","1517","","","","","31.493808","35.092863","yes","","","","4723",""
"11562","Beit 'Awwa","بِيت عَوَّا","","beit-awwa","Hebron","West Bank","","","","Village","Palestinian","","","","Remaining","Village","Palestinian","10649","10649","","","","","31.509265","34.948344","yes","","2095","","4722","GeoPoints/Bayt__Awwa_2095"
"11561","Khallet Al Masafer","خَلِّةْ المسافر","","khallet-al-masafer","","West Bank","","","","Village","Palestinian","","","","Remaining","Village","Palestinian","287","287","","","","","31.519348","35.159681","no","","","","4721",""
"11559","Deir Samit","دِير سَامِت","","deir-samit","Hebron","West Bank","","","","Village","Palestinian","","","","Remaining","Village","Palestinian","8237","8237","","","","","31.522511","34.974037","yes","","2094","","4720","GeoPoints/Dayr_Samit_2094"
"11558","Khallet Edar","خَلِّةْ  الدار","","khallet-edar","","West Bank","","","","Village","Palestinian","","","","Remaining","Village","Palestinian","2887","2887","","","","","31.493610","35.114133","no","","","","4719",""
"11557","Al Bowereh (Aqabat Injeleh)","البويره (عقبة انجيله)","","al-bowereh-aqabat-injeleh","","West Bank","","","","Village","Palestinian","","","","Remaining","Village","Palestinian","917","917","","","","","31.481373","35.123596","no","","","","4718",""
"11555","Al Baqa","البقعه","","al-baqa","Hebron","West Bank","","","","Village","Palestinian","","","","Remaining","Village","Palestinian","1609","1609","","","","","31.535683","35.130318","yes","","","","4717",""
"11554","Beit Maqdum","بِيت مَقْدُوم","","beit-maqdum","Hebron","West Bank","","","","Village","Palestinian","","","","Remaining","Village","Palestinian","3391","3391","","","","","31.537124","34.971222","yes","","","","4716",""
"11551","Qla'a Zeta","قلاع زيتا","","qlaa-zeta","Hebron","West Bank","","","","Community","Palestinian","","","","Remaining","Village","Palestinian","1193","1193","","","","","31.559064","35.123978","yes","","","","4715",""
"11550","Beit 'Einun","'بِيت عِينُون","","beit-einun","","West Bank","","","","Village","Palestinian","","","","Remaining","Village","Palestinian","2389","2389","","","","","31.565825","35.130789","no","","","","4714",""
"11541","Shuyukh al 'Arrub","شُيُوخْ العَرُّوب","","shuyukh-al-arrub","Hebron","West Bank","","","","Community","Palestinian","","","","Remaining","Village","Palestinian","2047","2047","","","","","31.616980","35.145464","yes","","","","4713",""
"11540","Hitta","حَتَّا","","hitta","Hebron","West Bank","","","","Village","Palestinian","","","","Remaining","Village","Palestinian","1177","1177","","","","","31.621305","35.020529","yes","","","","4712",""
"11539","Jala","جَالا","","jala","Hebron","West Bank","","","","Village","Palestinian","","","","Remaining","Village","Palestinian","329","329","","","","","31.618065","35.076830","yes","","","","4711",""
"11537","Al 'Arrub Camp","مُخَيَّمْ العَرُّوب","","al-arrub-camp","","West Bank","Refugee camp","","","Refugee camp","Palestinian","","","","Newly built","Refugee camp","Palestinian","10487","10487","","","","","31.622903","35.136378","no","","","","4710",""
"11535","Khirbat ad Deir","خِرْبِة الدِير","","khirbat-ad-deir","Hebron","West Bank","","","","Village","Palestinian","","","","Remaining","Village","Palestinian","349","349","","","","","31.655863","35.025614","yes","","","","4709",""
"11529","al 'Asa'asa","العَصاعْصَة","","al-asaasa","","West Bank","","","","Village","Palestinian","","","","Remaining","Village","Palestinian","577","577","","","","","32.329432","35.204181","no","","","","4708",""
"11516","Al Mansura","المَنْصورَة","","al-mansura-","","West Bank","","","","Village","Palestinian","","","","Remaining","Village","Palestinian","215","215","","","","","32.386465","35.216361","no","","","","4707",""
"11514","Fahma al Jadida","فَحْمَة الجَدِيدَة","","fahma-al-jadida","","West Bank","","","","Village","Palestinian","","","","Newly built","Village","Palestinian","459","459","","","","","32.389342","35.209458","no","","","","4706",""
"11513","Wadi Du'oq","وادي دْعُوق","","wadi-duoq","","West Bank","","","","Village","Palestinian","","","","Remaining","Village","Palestinian","153","153","","","","","32.392719","35.221250","no","","","","4705",""
"11508","Bir al Basha","بِير البَاشَا","","bir-al-basha","","West Bank","","","","Village","Palestinian","","","","Remaining","Village","Palestinian","1625","1625","","","","","32.420976","35.231269","no","","","","4704",""
"11507","Al Mutilla","المُطِلَّة","","al-mutilla","Jenin","West Bank","","","","Village","Palestinian","","","","Remaining","Village","Palestinian","367","367","","","","","32.419856","35.407122","yes","","","","4703",""
"11504","Ash Shuhada","الشُهَداء","","ash-shuhada","","West Bank","","","","Village","Palestinian","","","","Remaining","Village","Palestinian","2173","2173","","","","","32.429335","35.272737","no","","","","4702",""
"11502","Imreiha","إمريحة","","imreiha","","West Bank","","","","Village","Palestinian","","","","Remaining","Village","Palestinian","526","526","","","","","32.432595","35.145958","no","","","","4701",""
"11498","Dhaher al 'Abed","ظَهْر العَبْد","","dhaher-al-abed","Jenin","West Bank","","","","Village","Palestinian","","","","Remaining","Village","Palestinian","451","451","","","","","32.451525","35.096457","yes","","","","4700",""
"11497","Wadi ad Dabi'","وادي الضَبِع","","wadi-ad-dabi","Jenin","West Bank","","","","Community","Palestinian","","","","Remaining","Village","Palestinian","511","511","","","","","32.453761","35.331869","yes","","","","4699",""
"11496","Al Khuljan","الخُلْجان","","al-khuljan","Jenin","West Bank","","","","Village","Palestinian","","","","Remaining","Village","Palestinian","633","633","","","","","32.454949","35.144943","yes","","","","4698",""
"11495","Umm Dar","أُمُّ دار","","umm-dar","Jenin","West Bank","","","","Community","Palestinian","","","","Remaining","Village","Palestinian","692","692","","","","","32.457940","35.138335","yes","","","","4697",""
"11491","'Aba","عابا","","aba","","West Bank","","","","Village","Palestinian","","","","Remaining","Village","Palestinian","254","254","","","","","32.459093","35.323793","no","","","","4696",""
"11489","Jenin Camp","مُخَيَّم جِنين","","jenin-camp","","West Bank","Refugee camp","","","Refugee camp","Palestinian","","","","Newly built","Refugee camp","Palestinian","12890","12890","","","","","32.460176","35.287714","no","","","","4695",""
"11487","At Tarem","الطَرِم","","at-tarem","Jenin","West Bank","","","","Village","Palestinian","","","","Remaining","Village","Palestinian","459","459","","","","","32.464725","35.191616","yes","","","","4694",""
"11486","Nazlat ash Sheikh","نَزْلَة الشَيْخ زَيْد","","nazlat-ash-sheikh","Jenin","West Bank","","","","Community","Palestinian","","","","Remaining","Village","Palestinian","875","875","","","","","32.462394","35.175509","yes","","","","4693",""
"11484","Tura ash Sharqiya","طورَة الشَرْقِيَّة","","tura-ash-sharqiya","Jenin","West Bank","","","","Community","Palestinian","","","","Remaining","Village","Palestinian","216","216","","","","","32.466433","35.161751","yes","","","","4691",""
"11483","Tura al Gharbiya","طورة الغَرْبِيَّة","","tura-al-gharbiya","Jenin","West Bank","","","","Village","Palestinian","","","","Remaining","Village","Palestinian","1141","1141","","","","","32.468731","35.152868","yes","","","","4690",""
"11479","Dhaher al Malih","ظَهْر المَالِح","","dhaher-al-malih","Jenin","West Bank","","","","Village","Palestinian","","","","Remaining","Village","Palestinian","246","246","","","","","32.474181","35.162604","yes","","","","4689",""
"11478","Khirbat 'Abdallah Al Yunis","خِرْبِة عَبْدَ الله اليونِس","","khirbat-abdallah-al-yunis","Jenin","West Bank","","","","Community","Palestinian","","","","Remaining","Village","Palestinian","172","172","","","","","32.476790","35.113634","yes","","","","4688",""
"11476","Umm ar Rihan","أُمُّ الرِيحَان","","umm-ar-rihan","Jenin","West Bank","","","","Village","Palestinian","","","","Remaining","Village","Palestinian","460","460","","","","","32.483748","35.141022","yes","","","","4687",""
"11467","At Tayba","الطَيْبَة","","at-tayba","","West Bank","","","","Village","Palestinian","","","","Remaining","Village","Palestinian","2678","2678","","","","","32.516229","35.186831","no","","","","4686",""
"11462","Aqbat Jaber Camp","مُخَيَّمْ عَقَبَةْ جَبْر","","aqbat-jaber-camp","","West Bank","Refugee camp","","","Refugee camp","Palestinian","","","","Newly built","Refugee camp","Palestinian","9082","9082","","","","","31.840015","35.440392","no","","","","4685",""
"11460","'Ein as Sultan Camp","مُخَيَّمْ عِيْن السُلطَان","","ein-as-sultan-camp","","West Bank","Refugee camp","","","Refugee camp","Palestinian","","","","Newly built","Refugee camp","Palestinian","3999","3999","","","","","31.877284","35.445570","no","","","","4684",""
"11456","Fasayil","فَصَايِل","","fasayil","Nablus","West Bank","","","","Village","Palestinian","","","","Remaining","Village","Palestinian","1364","1364","","","","","32.028789","35.443289","yes","","","","4682",""
"11455","Al Jiftlik","الجِفْتْلِك","","al-jiftlik","","West Bank","","","","Village","Palestinian","","","","Remaining","Village","Palestinian","4701","4701","","","","","32.166944","35.526581","no","","","","4681",""
"11454","Marj al Ghazal","مَرْج الغَزال","","marj-al-ghazal","","West Bank","","","","Village","Palestinian","","","","Remaining","Village","Palestinian","257","257","","","","","32.166944","35.526581","no","","","","4680",""
"11453","Az Zubeidat","الزُبَيْدات","","az-zubeidat","","West Bank","","","","Village","Palestinian","","","","Remaining","Village","Palestinian","1798","1798","","","","","32.172726","35.529904","no","","","","4679",""
"11452","Marj Na'ja","مَرْج نَعْجَة","","marj-naja","","West Bank","","","","Community","Palestinian","","","","Remaining","Village","Palestinian","905","905","","","","","32.184642","35.537992","no","","","","4678",""
"11451","Al Fukhkhari","الفُخَّارِي","","al-fukhkhari","","Gaza","","","","Village","Palestinian","","","","Remaining","Village","Palestinian","7194","7194","","","","","31.289337","34.318846","no","","","","4677",""
"11448","Abasan as Saghira","عَبَسَان الجَديدَة (الصَغِيرَة )","","abasan-as-saghira","Gaza","Gaza","","","","Village","Palestinian","","","","Remaining","Village","Palestinian","7878","7878","","","","","31.339991","34.346659","yes","","","","4676",""
"11445","Khan Yunis Camp","مخيم خانيونس","","khan-yunis-camp","","Gaza","Refugee camp","","","Refugee camp","Palestinian","","","","Newly built","Refugee camp","Palestinian","48969","48969","","","","","31.348696","34.295166","no","","","","4675",""
"11444","Al Qarara","القَرَارَة","","al-qarara","Gaza","Gaza","","","","Village","Palestinian","","","","Remaining","Village","Palestinian","25675","25675","","","","","31.374304","34.334986","yes","","","","4674",""
"11423","Odala","أُودَلاَ","","odala","Nablus","West Bank","","","","Village","Palestinian","","","","Remaining","Village","Palestinian","1377","1377","","","","","32.152360","35.276186","yes","","5095","","4672","GeoPoints/Udala_5095"
"11420","Asira al Qibliya","عَصِيرَة القِبْلِيَّة","","asira-al-qibliya","","West Bank","","","","Village","Palestinian","","","","Remaining","Village","Palestinian","2871","2871","","","","","32.178002","35.334018","no","","","","4671",""
"11416","Furush Beit Dajan","فُرُوش بِيت دَجَن","","furush-beit-dajan","","West Bank","","","","Village","Palestinian","","","","Remaining","Village","Palestinian","933","933","","","","","32.185065","35.453076","no","","","","4669",""
"11411","Iraq Burin","عِرَاق بُورِين","","iraq-burin","Nablus","West Bank","","","","Village","Palestinian","","","","Remaining","Village","Palestinian","932","932","","","","","32.202001","35.237834","yes","","3563","","4668","GeoPoints/_Iraq_Burin_3563"
"11410","Balata Camp","مُخَيَّم بَلاطَة","","balata-camp","","West Bank","Refugee camp","","","Refugee camp","Palestinian","","","","Newly built","Refugee camp","Palestinian","18502","18502","","","","","32.206319","35.286710","no","","","","4667",""
"11406","Askar Camp","مُخَيَّمْ عَسْكَر","","askar-camp","","West Bank","Refugee camp","","","Refugee camp","Palestinian","","","","Newly built","Refugee camp","Palestinian","14085","14085","","","","","32.217841","35.300691","no","","","","4666",""
"11403","Ein Shibli","عِيْن شِبْلِي","","ein-shibli","","West Bank","","","","Community","Palestinian","","","","Remaining","Community","Palestinian","407","407","","","","","32.230096","35.424768","no","","","","4665",""
"11402","Ein Beit el Ma Camp","مُخَيَّمْ عِيْن بِيت الماء","","ein-beit-el-ma-camp","","West Bank","Refugee camp","","","Refugee camp","Palestinian","","","","Newly built","Refugee camp","Palestinian","4829","4829","","","","","32.230620","35.248917","no","","","","4664",""
"11400","Beit Hasan","بِيت حَسَن","","beit-hasan","Nablus","West Bank","","","","Village","Palestinian","","","","Remaining","Village","Palestinian","1360","1360","","","","","32.237201","35.404427","yes","","","","4663",""
"11397","Al 'Aqrabaniya","العَقْرَبانِيَّة","","al-aqrabaniya","","West Bank","","","","Village","Palestinian","","","","Remaining","Village","Palestinian","1215","1215","","","","","32.251972","35.378725","no","","","","4662",""
"11395","An Nassariya","النَصَّارِيَّة","","an-nassariya","Nablus","West Bank","","","","Village","Palestinian","","","","Remaining","Village","Palestinian","1923","1923","","","","","32.243434","35.381415","yes","","","","4661",""
"11392","Al Badhan","البَاذَان","","al-badhan","","West Bank","","","","Village","Palestinian","","","","Remaining","Village","Palestinian","3016","3016","","","","","32.261445","35.325923","no","","5058","","4660","GeoPoints/al_Badan_5058"
"11381","Jabalia Camp","مُخَيَّم جَبَالْيا","","jabalia-camp","","Gaza","Refugee camp","","","Refugee camp","Palestinian","","","","Newly built","Refugee camp","Palestinian","58517","58517","","","","","31.537522","34.500037","no","","","","4659",""
"11378","Al Qaraya al Badawiya al Maslakh","أم النصر (القَريَة البَدَوِيَّة المَسْلخ)","","al-qaraya-al-badawiya-al-maslakh","","Gaza","","","","Village","Palestinian","","","","Remaining","Village","Palestinian","3923","3923","","","","","31.559739","34.517863","no","","","","4657",""
"11377","'Azzun 'Atma","عَزُّون عَتْمَة","","azzun-atma","","West Bank","","","","Village","Palestinian","","","","Remaining","Village","Palestinian","2205","2205","","","","","32.122663","35.017276","no","","","","4656",""
"11375","Beit Amin","بِيت أَمين","","beit-amin","Nablus","West Bank","","","","Village","Palestinian","","","","Remaining","Village","Palestinian","1258","1258","","","","","32.131664","35.020837","yes","","3397","","4655","GeoPoints/Beit_Amin_3397"
"11374","Izbat al Ashqar","عِزْبِة الأشْقَر","","izbat-al-ashqar","Tulkarm","West Bank","","","","Village","Palestinian","","","","Remaining","Village","Palestinian","392","392","","","","","32.140157","35.020686","yes","","","","4654",""
"11373","'Izbat Salman","عِزْبَة سَلْمان","","izbat-salman","","West Bank","","","","Village","Palestinian","","","","Remaining","Village","Palestinian","899","899","","","","","32.141254","34.999636","no","","","","4653",""
"11372","Al Mudawwar","المُدَوَّر","","al-mudawwar","Tulkarm","West Bank","","","","Village","Palestinian","","","","Remaining","Village","Palestinian","337","337","","","","","32.144903","35.011691","yes","","","","4652",""
"11371","Izbat Jal'ud","عِزْبَة جَلْعُود","","izbat-jalud","","West Bank","","","","Village","Palestinian","","","","Remaining","Village","Palestinian","139","139","","","","","32.150372","34.998492","no","","","","4651",""
"11369","Ad Dab'a","الضَبْعَة","","ad-daba","Tulkarm","West Bank","","","","Village","Palestinian","","","","Remaining","Village","Palestinian","417","417","","","","","32.158311","35.009642","yes","","","","4650",""
"11368","Ras 'Atiya","راس عَطِيَّة","","ras-atiya","Tulkarm","West Bank","","","","Village","Palestinian","","","","Remaining","Village","Palestinian","1895","1895","","","","","32.158532","34.990649","yes","","","","4649",""
"11367","Ras at Tira","راس الطِيرَة","","ras-at-tira","Tulkarm","West Bank","","","","Village","Palestinian","","","","Remaining","Village","Palestinian","491","491","","","","","32.161692","35.010898","yes","","","","4648",""
"11365","Wadi ar Rasha","وادي الرَشَا","","wadi-ar-rasha","","West Bank","","","","Community","Palestinian","","","","Remaining","Village","Palestinian","193","193","","","","","32.167189","34.996163","no","","","","4647",""
"11364","Isla","عَسْلَة","","isla","Tulkarm","West Bank","","","","Village","Palestinian","","","","Remaining","Village","Palestinian","1065","1065","","","","","32.171677","35.033084","yes","","","","4646",""
"11363","Arab ar Ramadin","عَرَب الرَماضِين الجَنُوبي","","arab-ar-ramadin","","West Bank","","","","Village","Palestinian","","","","Remaining","Village","Palestinian","276","276","","","","","32.174226","34.988505","no","","","","4645",""
"11360","Izbat at Tabib","عِزْبَة الطَبِيب","","izbat-at-tabib","","West Bank","","","","Village","Palestinian","","","","Remaining","Village","Palestinian","288","288","","","","","32.181337","35.034370","no","","","","4644",""
"11359","Arab Abu Farda","عَرَب أبو فَرْدَة","","arab-abu-farda","","West Bank","","","","Village","Palestinian","","","","Remaining","Village","Palestinian","144","144","","","","","32.176650","34.993745","no","","","","4643",""
"11357","An Nabi Elyas","النَبِي إليَاس","","an-nabi-elyas","Tulkarm","West Bank","","","","Village","Palestinian","","","","Remaining","Village","Palestinian","1458","1458","","","","","32.184348","35.018350","yes","","","","4642",""
"11345","Shokat as Sufi","شُوكَة الصُوفِي","","shokat-as-sufi","","Gaza","","","","Community","Palestinian","","","","Remaining","Village","Palestinian","14453","14453","","","","","31.252691","34.269030","no","","","","4641",""
"11344","Al Nnaser (Al Bayuk)","النصر (البَيُّوك)","","al-nnaser-al-bayuk","","Gaza","","","","Village","Palestinian","","","","Remaining","Village","Palestinian","8495","8495","","","","","31.267412","34.278857","no","","","","4640",""
"11343","Rafah Camp","مُخَيَّم رَفَح","","rafah-camp","","Gaza","Refugee camp","","","Refugee camp","Palestinian","","","","Newly built","Refugee camp","Palestinian","46541","46541","","","","","31.284343","34.251680","no","","","","4639",""
"11341","Beit Nuba","بِيت نُوبَا","","beit-nuba","Ramle","West Bank","","","","Village","Palestinian","","","","Remaining","Village","Palestinian","319","319","","","","","31.853159","35.032870","yes","","","","4638",""
"11335","Qaddura Camp","مُخَيَّمْ قَدُّورَة","","qaddura-camp","","West Bank","Refugee camp","","","Refugee camp","Palestinian","","","","Newly built","Refugee camp","Palestinian","1546","1546","","","","","31.901517","35.206095","no","","","","4637",""
"11334","Al Am'ari Camp","مُخَيَّمْ الأَمْعَرِي","","al-amari-camp","","West Bank","Refugee camp","","","Refugee camp","Palestinian","","","","Newly built","Refugee camp","Palestinian","6416","6416","","","","","31.893950","35.210794","no","","","","4636",""
"11324","Badiw al Mu'arrajat","بَدِو المُعَرَّجَات","","badiw-al-muarrajat","","West Bank","","","","Village","Palestinian","","","","Remaining","Village","Palestinian","964","964","","","","","31.912628","35.350755","no","","","","4635",""
"11309","Al Jalazun Camp","مُخَيَّمْ الجَلَزُون","","al-jalazun-camp","","West Bank","Refugee camp","","","Refugee camp","Palestinian","","","","Newly built","Refugee camp","Palestinian","9998","9998","","","","","31.950184","35.212692","no","","","","4634",""
"11305","Al Zaytouneh","الزيتونة","","al-zaytouneh","","West Bank","","","","Village","Palestinian","","","","Remaining","Village","Palestinian","7921","7921","","","","","31.964910","35.172146","no","","","","4633",""
"11303","Deir 'Ammar Camp","مُخَيَّمْ دِير عَمَّار","","deir-ammar-camp","","West Bank","Refugee camp","","","Refugee camp","Palestinian","","","","Newly built","Refugee camp","Palestinian","2347","2347","","","","","31.966283","35.098974","no","","","","4632",""
"11301","Silwad Camp","مُخَيَّمْ سِلْواد","","silwad-camp","","West Bank","Refugee camp","","","Refugee camp","Palestinian","","","","Newly built","Refugee camp","Palestinian","489","489","","","","","31.968341","35.261820","no","","","","4631",""
"11297","Al Itihad","الاتحاد","","al-itihad","","West Bank","","","","Village","Palestinian","","","","Remaining","Village","Palestinian","8706","8706","","","","","31.974226","35.119306","no","","","","4630",""
"11271","Bani Zeid","بَني زِيْد","","bani-zeid","","West Bank","","","","Village","Palestinian","","","","Remaining","Village","Palestinian","7058","7058","","","","","32.032934","35.102826","no","","","","4629",""
"11269","Bani Zeid ash Sharqiya","بني زيد الشرقية","","bani-zeid-ash-sharqiya","","West Bank","","","","Village","Palestinian","","","","Remaining","Village","Palestinian","6505","6505","","","","","32.048910","35.164880","no","","","","4628",""
"11267","Khirbat Humsa (Atuf)","خِرْبِة حُمْصَة","","khirbat-humsa-atuf","Nablus","West Bank","","","","Community","Palestinian","","","","Remaining","Village","Palestinian","177","177","","","","","32.263225","35.437932","yes","","","","4627",""
"11266","Khirbat 'Atuf","خِرْبِة عَاطُوف","","khirbat-atuf","Nablus","West Bank","","","","Community","Palestinian","","","","Remaining","Village","Palestinian","227","227","","","","","32.263202","35.438253","yes","","","","4626",""
"11264","Wadi al Far'a","وادي الفارِعَة","","wadi-al-fara","","West Bank","","","","Community","Palestinian","","","","Remaining","Village","Palestinian","3631","3631","","","","","32.281562","35.342307","no","","1155","","4625","GeoPoints/Ghor_al_Fari_a___Umm_Hureira_1155"
"11263","Khirbat ar Ras al Ahm","خِرْبِة الرَاس الأحْمَر","","khirbat-ar-ras-al-ahm","","West Bank","","","","Village","Palestinian","","","","Remaining","Village","Palestinian","238","238","","","","","32.265562","35.458246","no","","","","4624",""
"11262","El Far'a Camp","مُخَيَّمْ الفارْعَةْ","","el-fara-camp","","West Bank","Refugee camp","","","Refugee camp","Palestinian","","","","Newly built","Refugee camp","Palestinian","7598","7598","","","","","32.293834","35.344063","no","","","","4623",""
"11261","Ras al Far'a","رَاس الفارْعَةْ","","ras-al-fara","","West Bank","","","","Village","Palestinian","","","","Remaining","Village","Palestinian","939","939","","","","","32.287377","35.331787","no","","","","4622",""
"11259","Al Malih"," المالِح","","al-malih","","West Bank","","","","Village","Palestinian","","","","Remaining","Village","Palestinian","492","492","","","","","32.329623","35.389547","no","","","","4621",""
"11258","Ath Thaghra","الثَغْرَة","","ath-thaghra","Nablus","West Bank","","","","Village","Palestinian","","","","Remaining","Village","Palestinian","726","726","","","","","32.329623","35.389547","yes","","","","4620",""
"11257","Al 'Aqaba","العَقَبَة","","al-aqaba","Nablus","West Bank","","","","Village","Palestinian","","","","Remaining","Village","Palestinian","138","138","","","","","32.339648","35.417361","yes","","6315","","4619","GeoPoints/al__Uqba_6315"
"11256","Al Farisiya","الفَارِسِيَّة","","al-farisiya","","West Bank","","","","Village","Palestinian","","","","Remaining","Village","Palestinian","201","201","","","","","32.339780","35.397568","no","","","","4618",""
"11253","Ibziq","إبْزِيق","","ibziq","","West Bank","","","","Village","Palestinian","","","","Remaining","Village","Palestinian","281","281","","","","","32.376475","35.405877","no","","","","4617",""
"11252","Kardala ","كَرْدَلَة","","kardala ","Nablus","West Bank","","","","Community","Palestinian","","","","Remaining","Village","Palestinian","408","408","","","","","32.379359","35.489820","yes","","","","4616",""
"11251","Ein el Beida","عِيْن البَيْضَا","","ein-el-beida","Nablus","West Bank","","","","Village","Palestinian","","","","Remaining","Village","Palestinian","1547","1547","","","","","32.380403","35.506602","yes","","","","4615",""
"11250","Bardala","بَرْدَلَة","","bardala","Nablus","West Bank","","","","Village","Palestinian","","","","Remaining","Village","Palestinian","2177","2177","","","","","32.386524","35.480365","yes","","","","4614",""
"11241","Khirbat Jubara","خِرْبَة جْبارة","","khirbat-jubara","Tulkarm","West Bank","","","","Community","Palestinian","","","","Remaining","Village","Palestinian","344","344","","","","","32.268096","35.035564","yes","","","","4613",""
"11237","Al Haffasi","الحَفَّاصي","","al-haffasi","Tulkarm","West Bank","","","","Village","Palestinian","","","","Remaining","Village","Palestinian","184","184","","","","","32.291125","35.075784","yes","","","","4612",""
"11236","Kafa","كَفَا","","kafa","Tulkarm","West Bank","","","","Village","Palestinian","","","","Remaining","Village","Palestinian","474","474","","","","","32.292609","35.049735","yes","","","","4611",""
"11232","Tulkarm Camp","مُخَيَّم طُولكَرْم","","tulkarm-camp","","West Bank","Refugee camp","","","Refugee camp","Palestinian","","","","Newly built","Refugee camp","Palestinian","12482","12482","","","","","32.313782","35.035020","no","","","","4610",""
"11231","Nur Shams Camp","مُخَيَّم نُورْ شَمْس","","nur-shams-camp","","West Bank","Refugee camp","","","Refugee camp","Palestinian","","","","Newly built","Refugee camp","Palestinian","7600","7600","","","","","32.317811","35.058880","no","","","","4609",""
"11230","Iktaba","إكتَابَا","","iktaba","Tulkarm","West Bank","","","","Village","Palestinian","","","","Remaining","Village","Palestinian","3126","3126","","","","","32.325595","35.053088","yes","","","","4608",""
"11228","Al Masqufa","المَسْقوفَة","","al-masqufa","Tulkarm","West Bank","","","","Village","Palestinian","","","","Remaining","Village","Palestinian","305","305","","","","","32.334259","35.055953","yes","","","","4607",""
"11227","Al Jarushiya","الجاروشِيَّة","","al-jarushiya","Tulkarm","West Bank","","","","Village","Palestinian","","","","Remaining","Village","Palestinian","1093","1093","","","","","32.347346","35.050264","yes","","","","4606",""
"11215","Akkaba","عَكَّابَة","","akkaba","Tulkarm","West Bank","","","","Village","Palestinian","","","","Remaining","Village","Palestinian","298","298","","","","","32.447081","35.080663","yes","","","","4605",""
"11214","Tarum","","תרום","tarum","","Jerusalem","","","","","","","","","Newly built","Settlement","Jewish","800","","800","","1950","","31.783000","34.981780","no","","","","4604",""
"11213","Tarabin As-Sani","","תרבין א-צאנע (יישוב)*","tarabin-as-sani","","Southern","","","","Community","Palestinian","","","","Remaining","Village","Palestinian","500","500","","","","","31.344220","34.740072","no","","","","4603",""
