{"type":"FeatureCollection","features":[{"type":"Feature","geometry":{"type":"Point","coordinates":[34.980151,32.701451]},"properties":{"name_en":"Ayn Hawd","name_ar":"عين حوض","slug":"ayn-hawd","type":"Settlement","group":"Jewish","status":"Appropriated"}},{"type":"Feature","geometry":{"type":"Point","coordinates":[34.966578,32.682109]},"properties":{"name_en":"al-Mazar","name_ar":"المزار","slug":"al-mazar-haifa","type":"Village","group":"Palestinian","status":"Depopulated"}},{"type":"Feature","geometry":{"type":"Point","coordinates":[34.96327,32.654305]},"properties":{"name_en":"Jaba'","name_ar":"جبع","slug":"jaba-haifa","type":"Village","group":"Palestinian","status":"Depopulated"}},{"type":"Feature","geometry":{"type":"Point","coordinates":[34.989649,32.645218]},"properties":{"name_en":"Ijzim","name_ar":"إجزم","slug":"ijzim","type":"Village","group":"Palestinian","status":"Built over"}},{"type":"Feature","geometry":{"type":"Point","coordinates":[34.968212,32.632538]},"properties":{"name_en":"Ayn Ghazal","name_ar":"عين غزال","slug":"ayn-ghazal","type":"Village","group":"Palestinian","status":"Depopulated"}},{"type":"Feature","geometry":{"type":"Point","coordinates":[34.934072,32.637142]},"properties":{"name_en":"Arab al-Samniyya","name_ar":"عرب السمنية","slug":"kafr-lam","type":"Village","group":"Palestinian","status":"Built over"}},{"type":"Feature","geometry":{"type":"Point","coordinates":[34.936005,32.647416]},"properties":{"name_en":"al-Sarafand","name_ar":"الصرفند","slug":"al-sarafand","type":"Village","group":"Palestinian","status":"Depopulated"}},{"type":"Feature","geometry":{"type":"Point","coordinates":[34.9174,32.6094]},"properties":{"name_en":"al-Tantura","name_ar":"الطنطورة","slug":"al-tantura","type":"Village","group":"Palestinian","status":"Built over"}},{"type":"Feature","geometry":{"type":"Point","coordinates":[34.951237,32.596359]},"properties":{"name_en":"Furreidis","name_ar":"عين غزال","slug":"furreidis","type":"Village","group":"Palestinian","status":"Remaining"}},{"type":"Feature","geometry":{"type":"Point","coordinates":[34.972577,32.589685]},"properties":{"name_en":"Meir Shefeiya","name_ar":"ماير شفيا","slug":"meir-shefeya","type":"Settlement","group":"Jewish","status":"Remaining"}},{"type":"Feature","geometry":{"type":"Point","coordinates":[35.022868,32.7331]},"properties":{"name_en":"Khirbat al-Damun","name_ar":"خربة الدامون","slug":"khirbat-al-damun","type":"Village","group":"Palestinian","status":"Built over"}},{"type":"Feature","geometry":{"type":"Point","coordinates":[35.066325,32.718901]},"properties":{"name_en":"Isfiya","name_ar":"عسفيا","slug":"isfiya","type":"Village","group":"Palestinian","status":"Remaining"}},{"type":"Feature","geometry":{"type":"Point","coordinates":[35.043039,32.696013]},"properties":{"name_en":"Daliyat al-Karmil","name_ar":"دالية الكرمل","slug":"daliyat-al-karmil","type":"Village","group":"Palestinian","status":"Remaining"}},{"type":"Feature","geometry":{"type":"Point","coordinates":[35.100521,32.675678]},"properties":{"name_en":"Khirbat al-Mansura","name_ar":"خربة المنصورة","slug":"khirbat-al-mansura","type":"Village","group":"Palestinian","status":"Depopulated"}},{"type":"Feature","geometry":{"type":"Point","coordinates":[35.090569,32.722979]},"properties":{"name_en":"al-Jalama","name_ar":"الجلمة","slug":"al-jalama-haifa","type":"Village","group":"Palestinian","status":"Built over"}},{"type":"Feature","geometry":{"type":"Point","coordinates":[35.092595,32.751491]},"properties":{"name_en":"Kefar Hasidim Alef","name_ar":"كفار حاسيديم ا","slug":"kefar-hasidim-alef","type":"Settlement","group":"Jewish","status":"Remaining"}},{"type":"Feature","geometry":{"type":"Point","coordinates":[35.057672,32.758807]},"properties":{"name_en":"Yajur","name_ar":"ياجور","slug":"yajur","type":"Village","group":"Palestinian","status":"Depopulated"}},{"type":"Feature","geometry":{"type":"Point","coordinates":[35.17821,32.69669]},"properties":{"name_en":"Bet She'arim","name_ar":"Bet She'arim","slug":"bet-shearim","type":"Settlement","group":"Jewish","status":"Remaining"}},{"type":"Feature","geometry":{"type":"Point","coordinates":[35.151786,32.680993]},"properties":{"name_en":"Kefar Yehoshua'","name_ar":"كفار يهوشع","slug":"kefar-yehoshua","type":"Settlement","group":"Jewish","status":"Remaining"}},{"type":"Feature","geometry":{"type":"Point","coordinates":[35.167066,32.702451]},"properties":{"name_en":"Ramat Yishai (Jeida)","name_ar":"جيدا","slug":"ramat-yishay-jeida","type":"Settlement","group":"Jewish","status":"Remaining"}},{"type":"Feature","geometry":{"type":"Point","coordinates":[35.141123,32.697689]},"properties":{"name_en":"Sede Ya'aqov","name_ar":"سدي يعقوب","slug":"sede-yaaqov","type":"Settlement","group":"Jewish","status":"Remaining"}},{"type":"Feature","geometry":{"type":"Point","coordinates":[35.109866,32.722499]},"properties":{"name_en":"Sha'ar HaAmakim","name_ar":"شاعار هاعماقيم","slug":"shaar-haamaqim","type":"Settlement","group":"Jewish","status":"Remaining"}},{"type":"Feature","geometry":{"type":"Point","coordinates":[35.14293,32.720363]},"properties":{"name_en":"Allonim","name_ar":"Allonim","slug":"allonim","type":"Settlement","group":"Jewish","status":"Remaining"}},{"type":"Feature","geometry":{"type":"Point","coordinates":[35.19677,32.69038]},"properties":{"name_en":"Nahalal","name_ar":"نحلال","slug":"nahalal","type":"Settlement","group":"Jewish","status":"Remaining"}},{"type":"Feature","geometry":{"type":"Point","coordinates":[35.203816,32.678286]},"properties":{"name_en":"Ramat David","name_ar":"رامات ديفيد","slug":"ramat-david","type":"Settlement","group":"Jewish","status":"Remaining"}},{"type":"Feature","geometry":{"type":"Point","coordinates":[35.128618,32.701834]},"properties":{"name_en":"al-Shaykh Bureik","name_ar":"الشيخ بريك","slug":"al-sheikh-bureik","type":"Village","group":"Palestinian","status":"Depopulated"}},{"type":"Feature","geometry":{"type":"Point","coordinates":[35.171686,32.957494]},"properties":{"name_en":"Abu Sinan","name_ar":"أبو سنان","slug":"abu-sinan","type":"Village","group":"Palestinian","status":"Remaining"}},{"type":"Feature","geometry":{"type":"Point","coordinates":[35.068248,32.921781]},"properties":{"name_en":"Acre","name_ar":"عكا","slug":"acre","type":"City","group":"Mixed","status":"Appropriated"}},{"type":"Feature","geometry":{"type":"Point","coordinates":[35.167959,32.978292]},"properties":{"name_en":"Amqa","name_ar":"عمقا","slug":"amqa-acre","type":"Village","group":"Palestinian","status":"Depopulated"}},{"type":"Feature","geometry":{"type":"Point","coordinates":[35.179054,33.047056]},"properties":{"name_en":"Arab al-Samniyya","name_ar":"عرب السّمنية","slug":"arab-al-samniyya","type":"Village","group":"Palestinian","status":"Built over"}},{"type":"Feature","geometry":{"type":"Point","coordinates":[35.338329,32.850728]},"properties":{"name_en":"Arraba","name_ar":"عرابة","slug":"arraba-acre","type":"City","group":"Palestinian","status":"Remaining"}},{"type":"Feature","geometry":{"type":"Point","coordinates":[35.142962,33.078079]},"properties":{"name_en":"al-Bassa","name_ar":"البصّة","slug":"al-bassa","type":"Village","group":"Mixed","status":"Built over"}},{"type":"Feature","geometry":{"type":"Point","coordinates":[35.381185,32.964909]},"properties":{"name_en":"Bayt Jann","name_ar":"بيت جن","slug":"bayt-jann","type":"Village","group":"Palestinian","status":"Remaining"}},{"type":"Feature","geometry":{"type":"Point","coordinates":[35.271464,32.931793]},"properties":{"name_en":"Bi'na","name_ar":"البعنة","slug":"bina","type":"Village","group":"Palestinian","status":"Remaining"}},{"type":"Feature","geometry":{"type":"Point","coordinates":[35.178674,32.905473]},"properties":{"name_en":"al-Birwa","name_ar":"البروة","slug":"al-birwa","type":"Village","group":"Palestinian","status":"Depopulated"}},{"type":"Feature","geometry":{"type":"Point","coordinates":[35.335748,32.976642]},"properties":{"name_en":"Buqei'a/Peki'in","name_ar":"البقيعة","slug":"buqeia","type":"Village","group":"Palestinian","status":"Remaining"}},{"type":"Feature","geometry":{"type":"Point","coordinates":[35.18229,32.876842]},"properties":{"name_en":"al-Damun","name_ar":"الدامون","slug":"al-damun","type":"Village","group":"Palestinian","status":"Depopulated"}},{"type":"Feature","geometry":{"type":"Point","coordinates":[35.270569,32.93526]},"properties":{"name_en":"Dayr al-Asad","name_ar":"دير الأسد","slug":"dayr-al-asad","type":"Village","group":"Palestinian","status":"Remaining"}},{"type":"Feature","geometry":{"type":"Point","coordinates":[35.364207,32.862909]},"properties":{"name_en":"Dayr Hanna","name_ar":"دير حنا","slug":"dayr-hanna","type":"Village","group":"Palestinian","status":"Remaining"}},{"type":"Feature","geometry":{"type":"Point","coordinates":[35.324095,33.034969]},"properties":{"name_en":"Dayr al-Qasi","name_ar":"دير القاسي","slug":"dayr-al-qasi","type":"Village","group":"Palestinian","status":"Built over"}},{"type":"Feature","geometry":{"type":"Point","coordinates":[35.149629,33.000162]},"properties":{"name_en":"al-Ghabisiyya","name_ar":"الغابسية","slug":"al-ghabisiyya","type":"Village","group":"Palestinian","status":"Depopulated"}},{"type":"Feature","geometry":{"type":"Point","coordinates":[35.172667,33.087808]},"properties":{"name_en":"Hanita","name_ar":"حانيتا","slug":"hanita","type":"Settlement","group":"Jewish","status":"Remaining"}},{"type":"Feature","geometry":{"type":"Point","coordinates":[35.275571,33.075565]},"properties":{"name_en":"Iqrit","name_ar":"إقرت","slug":"iqrit","type":"Village","group":"Palestinian","status":"Depopulated"}},{"type":"Feature","geometry":{"type":"Point","coordinates":[35.156631,32.927374]},"properties":{"name_en":"al-Jadeida","name_ar":"الجديدة","slug":"al-jadeida","type":"Village","group":"Palestinian","status":"Remaining"}},{"type":"Feature","geometry":{"type":"Point","coordinates":[35.235312,32.973606]},"properties":{"name_en":"Jatt","name_ar":"جت","slug":"jatt-acre","type":"Village","group":"Palestinian","status":"Remaining"}},{"type":"Feature","geometry":{"type":"Point","coordinates":[35.221993,32.994155]},"properties":{"name_en":"Khirbat Jiddin","name_ar":"خربة جدين","slug":"khirbat-jiddin","type":"Village","group":"Mixed","status":"Built over"}},{"type":"Feature","geometry":{"type":"Point","coordinates":[35.18703,32.943627]},"properties":{"name_en":"Julis","name_ar":"جولس","slug":"julis-acre","type":"Village","group":"Palestinian","status":"Remaining"}},{"type":"Feature","geometry":{"type":"Point","coordinates":[35.213723,32.866501]},"properties":{"name_en":"Kabul","name_ar":"كابول","slug":"kabul","type":"Village","group":"Palestinian","status":"Remaining"}},{"type":"Feature","geometry":{"type":"Point","coordinates":[35.419276,32.923074]},"properties":{"name_en":"Kafr 'Inan","name_ar":"كفر عنان","slug":"kafr-inan","type":"Village","group":"Palestinian","status":"Depopulated"}},{"type":"Feature","geometry":{"type":"Point","coordinates":[35.306397,32.979364]},"properties":{"name_en":"Kafr Sumei","name_ar":"كفر سميع","slug":"kafr-sumei","type":"Village","group":"Palestinian","status":"Remaining"}},{"type":"Feature","geometry":{"type":"Point","coordinates":[35.165227,32.955262]},"properties":{"name_en":"Kafr Yasif","name_ar":"كفر ياسيف","slug":"kafr-yasif","type":"Village","group":"Palestinian","status":"Remaining"}},{"type":"Feature","geometry":{"type":"Point","coordinates":[35.303011,32.961948]},"properties":{"name_en":"Kisra-Sumei","name_ar":"كسرا","slug":"kisra-sumei","type":"Village","group":"Palestinian","status":"Remaining"}},{"type":"Feature","geometry":{"type":"Point","coordinates":[35.147834,32.971051]},"properties":{"name_en":"Kuwaykat","name_ar":"كويكات","slug":"kuwaykat","type":"Village","group":"Palestinian","status":"Built over"}},{"type":"Feature","geometry":{"type":"Point","coordinates":[35.252547,32.920434]},"properties":{"name_en":"Majd al-Kurum","name_ar":"مجد الكروم","slug":"majd-al-kurum","type":"Village","group":"Palestinian","status":"Remaining"}},{"type":"Feature","geometry":{"type":"Point","coordinates":[35.139372,32.934105]},"properties":{"name_en":"Makr","name_ar":"المكر","slug":"makr","type":"Amalgamated","group":"Palestinian","status":"Remaining"}},{"type":"Feature","geometry":{"type":"Point","coordinates":[35.090777,32.931918]},"properties":{"name_en":"al-Manshiyya","name_ar":"المنشية","slug":"al-manshiyya-acre","type":"Village","group":"Mixed","status":"Built over"}},{"type":"Feature","geometry":{"type":"Point","coordinates":[35.098352,32.983836]},"properties":{"name_en":"al-Mazra'a","name_ar":"المزرعة","slug":"al-mazraa","type":"Village","group":"Palestinian","status":"Remaining"}},{"type":"Feature","geometry":{"type":"Point","coordinates":[35.247252,32.875426]},"properties":{"name_en":"Mi'ar","name_ar":"معار","slug":"miar","type":"Village","group":"Palestinian","status":"Built over"}},{"type":"Feature","geometry":{"type":"Point","coordinates":[35.260668,33.024447]},"properties":{"name_en":"Mi'ilya","name_ar":"معليا","slug":"miilya","type":"Village","group":"Palestinian","status":"Remaining"}},{"type":"Feature","geometry":{"type":"Point","coordinates":[35.316697,32.935945]},"properties":{"name_en":"Nahf","name_ar":"نحف","slug":"nahf","type":"Village","group":"Palestinian","status":"Remaining"}},{"type":"Feature","geometry":{"type":"Point","coordinates":[35.140168,33.005986]},"properties":{"name_en":"al-Nahr","name_ar":"النهر","slug":"al-nahr","type":"Village","group":"Palestinian","status":"Depopulated"}},{"type":"Feature","geometry":{"type":"Point","coordinates":[35.092779,33.007112]},"properties":{"name_en":"al-Nahr","name_ar":"النهر","slug":"nahariyya","type":"City","group":"Jewish","status":"Remaining"}},{"type":"Feature","geometry":{"type":"Point","coordinates":[35.367729,32.938355]},"properties":{"name_en":"al-Rama","name_ar":"الرامة","slug":"al-rama-acre","type":"Village","group":"Palestinian","status":"Remaining"}},{"type":"Feature","geometry":{"type":"Point","coordinates":[35.177826,32.864435]},"properties":{"name_en":"al-Ruways","name_ar":"الرويس","slug":"al-ruways","type":"Village","group":"Palestinian","status":"Depopulated"}},{"type":"Feature","geometry":{"type":"Point","coordinates":[35.342274,32.94243]},"properties":{"name_en":"Sajur","name_ar":"ساجور","slug":"sajur","type":"Village","group":"Palestinian","status":"Remaining"}},{"type":"Feature","geometry":{"type":"Point","coordinates":[35.242328,32.888994]},"properties":{"name_en":"Sha'ab","name_ar":"شعب","slug":"shaab","type":"Village","group":"Palestinian","status":"Remaining"}},{"type":"Feature","geometry":{"type":"Point","coordinates":[35.3031,33.006181]},"properties":{"name_en":"Suhmata","name_ar":"سحماتا","slug":"suhmata","type":"Village","group":"Palestinian","status":"Depopulated"}},{"type":"Feature","geometry":{"type":"Point","coordinates":[35.093259,32.97237]},"properties":{"name_en":"al-Sumayriyya","name_ar":"السميرية","slug":"al-sumayriyya","type":"Village","group":"Palestinian","status":"Depopulated"}},{"type":"Feature","geometry":{"type":"Point","coordinates":[35.206318,32.850966]},"properties":{"name_en":"Tamra","name_ar":"طمرة","slug":"tamra-acre","type":"City","group":"Palestinian","status":"Remaining"}},{"type":"Feature","geometry":{"type":"Point","coordinates":[35.285125,33.083067]},"properties":{"name_en":"Tarbikha","name_ar":"تربيخا","slug":"tarbikha","type":"Village","group":"Palestinian","status":"Built over"}},{"type":"Feature","geometry":{"type":"Point","coordinates":[35.268444,33.010417]},"properties":{"name_en":"Tarshiha","name_ar":"ترشيحا","slug":"tarshiha","type":"Village","group":"Palestinian","status":"Depopulated"}},{"type":"Feature","geometry":{"type":"Point","coordinates":[35.121723,33.005299]},"properties":{"name_en":"Umm al-Faraj","name_ar":"أم الفرج","slug":"umm-al-faraj","type":"Village","group":"Palestinian","status":"Built over"}},{"type":"Feature","geometry":{"type":"Point","coordinates":[35.251491,32.983339]},"properties":{"name_en":"Yanuh","name_ar":"يانوح","slug":"yanuh","type":"Village","group":"Palestinian","status":"Remaining"}},{"type":"Feature","geometry":{"type":"Point","coordinates":[35.212743,32.953825]},"properties":{"name_en":"Yirka","name_ar":"يركا","slug":"yirka","type":"Village","group":"Palestinian","status":"Remaining"}},{"type":"Feature","geometry":{"type":"Point","coordinates":[35.101429,33.04785]},"properties":{"name_en":"al-Zib","name_ar":"الزيب","slug":"al-zeeb","type":"Village","group":"Palestinian","status":"Depopulated"}},{"type":"Feature","geometry":{"type":"Point","coordinates":[34.848101,31.94476]},"properties":{"name_en":"Abu al-Fadl","name_ar":"أبو الفضل","slug":"abu-al-fadl","type":"Village","group":"Palestinian","status":"Built over"}},{"type":"Feature","geometry":{"type":"Point","coordinates":[34.91562,31.857014]},"properties":{"name_en":"Abu Shusha","name_ar":"أبو شوشة","slug":"abu-shusha-ramle","type":"Village","group":"Palestinian","status":"Depopulated"}},{"type":"Feature","geometry":{"type":"Point","coordinates":[34.820771,31.85921]},"properties":{"name_en":"Aqir","name_ar":"عاقر","slug":"aqir","type":"Village","group":"Palestinian","status":"Built over"}},{"type":"Feature","geometry":{"type":"Point","coordinates":[34.987506,31.910417]},"properties":{"name_en":"Barfiliya","name_ar":"برفيلية","slug":"barfiliya","type":"Village","group":"Palestinian","status":"Depopulated"}},{"type":"Feature","geometry":{"type":"Point","coordinates":[34.917496,31.888219]},"properties":{"name_en":"al-Barriyya","name_ar":"البرية","slug":"barriyya","type":"Village","group":"Palestinian","status":"Built over"}},{"type":"Feature","geometry":{"type":"Point","coordinates":[34.748555,31.823661]},"properties":{"name_en":"Bashshit","name_ar":"بشيت","slug":"bashshit","type":"Village","group":"Palestinian","status":"Built over"}},{"type":"Feature","geometry":{"type":"Point","coordinates":[34.83531,31.936126]},"properties":{"name_en":"Beer Ya'aqov","name_ar":"بير يعقوب","slug":"beer-yaaqov","type":"Settlement","group":"Jewish","status":"Remaining"}},{"type":"Feature","geometry":{"type":"Point","coordinates":[34.777102,31.935488]},"properties":{"name_en":"Bet Hanan","name_ar":"Bet Hanan","slug":"bet-hanan","type":"Settlement","group":"Jewish","status":"Remaining"}},{"type":"Feature","geometry":{"type":"Point","coordinates":[34.914869,31.800905]},"properties":{"name_en":"Khirbat Bayt Far","name_ar":"خربة بيت فار","slug":"khirbat-bayt-far","type":"Community","group":"Palestinian","status":"Depopulated"}},{"type":"Feature","geometry":{"type":"Point","coordinates":[34.95311,31.813151]},"properties":{"name_en":"Bayt Jiz","name_ar":"بيت جيز","slug":"bayt-jiz","type":"Village","group":"Palestinian","status":"Depopulated"}},{"type":"Feature","geometry":{"type":"Point","coordinates":[34.956388,31.986024]},"properties":{"name_en":"Bayt Nabala","name_ar":"بيت نبالا","slug":"bayt-nabala","type":"Village","group":"Palestinian","status":"Depopulated"}},{"type":"Feature","geometry":{"type":"Point","coordinates":[35.032651,31.852916]},"properties":{"name_en":"Bayt Nuba & 'Ajanjul","name_ar":"عجنجول","slug":"bayt-nuba","type":"Village","group":"Palestinian","status":"Depopulated"}},{"type":"Feature","geometry":{"type":"Point","coordinates":[34.772309,31.921676]},"properties":{"name_en":"Bet 'Oved","name_ar":"بيت عوفيد","slug":"bet-oved","type":"Settlement","group":"Jewish","status":"Remaining"}},{"type":"Feature","geometry":{"type":"Point","coordinates":[34.987133,31.877426]},"properties":{"name_en":"Bayt Shanna","name_ar":"بيت شنة","slug":"bayt-shanna","type":"Village","group":"Palestinian","status":"Depopulated"}},{"type":"Feature","geometry":{"type":"Point","coordinates":[34.983395,31.8063]},"properties":{"name_en":"Bayt Susin","name_ar":"بيت سوسين","slug":"bayt-susin","type":"Village","group":"Palestinian","status":"Depopulated"}},{"type":"Feature","geometry":{"type":"Point","coordinates":[34.933937,31.958538]},"properties":{"name_en":"Ben Shemen (K.No'ar)","name_ar":"بيت شيمن","slug":"ben-shemen-knoar","type":"Settlement","group":"Jewish","status":"Remaining"}},{"type":"Feature","geometry":{"type":"Point","coordinates":[35.071175,31.925976]},"properties":{"name_en":"Bil'in","name_ar":"بلعين","slug":"bilin-ramle","type":"Village","group":"Palestinian","status":"Remaining"}},{"type":"Feature","geometry":{"type":"Point","coordinates":[35.019843,31.887885]},"properties":{"name_en":"Bir Ma'in","name_ar":"بير معين","slug":"bir-main","type":"Village","group":"Palestinian","status":"Built over"}},{"type":"Feature","geometry":{"type":"Point","coordinates":[34.827597,31.926006]},"properties":{"name_en":"Bir Salim","name_ar":"بيرسالم","slug":"bir-salim","type":"Village","group":"Palestinian","status":"Built over"}},{"type":"Feature","geometry":{"type":"Point","coordinates":[34.993828,31.966209]},"properties":{"name_en":"Burdus","name_ar":"بدرس","slug":"burdus","type":"Village","group":"Palestinian","status":"Remaining"}},{"type":"Feature","geometry":{"type":"Point","coordinates":[35.019679,31.902044]},"properties":{"name_en":"al-Burj","name_ar":"البرج","slug":"al-burj-ramle","type":"Village","group":"Palestinian","status":"Built over"}},{"type":"Feature","geometry":{"type":"Point","coordinates":[35.014871,31.873496]},"properties":{"name_en":"Khirbat al-Buwayra","name_ar":"خربة البويرة","slug":"khirbat-buwayra","type":"Community","group":"Palestinian","status":"Depopulated"}},{"type":"Feature","geometry":{"type":"Point","coordinates":[34.930811,31.931362]},"properties":{"name_en":"Daniyal","name_ar":"دانيال","slug":"daniyal","type":"Village","group":"Palestinian","status":"Built over"}},{"type":"Feature","geometry":{"type":"Point","coordinates":[34.956891,31.94931]},"properties":{"name_en":"Dayr Abu Salama","name_ar":"دير أبو سلامة","slug":"dayr-abu-salama","type":"Village","group":"Palestinian","status":"Depopulated"}},{"type":"Feature","geometry":{"type":"Point","coordinates":[35.01907,31.827333]},"properties":{"name_en":"Dayr Ayyub","name_ar":"دير أيوب","slug":"dayr-ayyub","type":"Village","group":"Palestinian","status":"Depopulated"}},{"type":"Feature","geometry":{"type":"Point","coordinates":[34.933223,31.828385]},"properties":{"name_en":"Dayr Muhaysin","name_ar":"دير محيسن","slug":"dayr-muhaysin","type":"Village","group":"Palestinian","status":"Depopulated"}},{"type":"Feature","geometry":{"type":"Point","coordinates":[35.045937,31.949774]},"properties":{"name_en":"Dayr Qadis","name_ar":"دير قديس","slug":"dayr-qadis","type":"Village","group":"Palestinian","status":"Remaining"}},{"type":"Feature","geometry":{"type":"Point","coordinates":[34.939117,31.993]},"properties":{"name_en":"Dayr Tarif","name_ar":"دير طريف","slug":"dayr-tarif","type":"Village","group":"Palestinian","status":"Built over"}},{"type":"Feature","geometry":{"type":"Point","coordinates":[34.935451,31.946029]},"properties":{"name_en":"Khirbat al-Duhayriyya","name_ar":"خربة الضهيرية","slug":"al-duhriyya","type":"Village","group":"Palestinian","status":"Depopulated"}},{"type":"Feature","geometry":{"type":"Point","coordinates":[34.79877,31.87704]},"properties":{"name_en":"Gan Shelomo","name_ar":"Gan Shelomo","slug":"gan-shelomo","type":"Settlement","group":"Jewish","status":"Remaining"}},{"type":"Feature","geometry":{"type":"Point","coordinates":[34.775863,31.815192]},"properties":{"name_en":"Gedera","name_ar":"غديرا","slug":"gedera","type":"Settlement","group":"Jewish","status":"Remaining"}},{"type":"Feature","geometry":{"type":"Point","coordinates":[34.80141,31.86633]},"properties":{"name_en":"Giv'at Brenner","name_ar":"Giv'at Brenner","slug":"givat-brenner","type":"Settlement","group":"Jewish","status":"Remaining"}},{"type":"Feature","geometry":{"type":"Point","coordinates":[34.95146,31.962929]},"properties":{"name_en":"al-Haditha","name_ar":"الحديثة","slug":"al-haditha","type":"Village","group":"Palestinian","status":"Depopulated"}},{"type":"Feature","geometry":{"type":"Point","coordinates":[34.855594,31.742266]},"properties":{"name_en":"Idnibba","name_ar":"إدنبة","slug":"idnibba","type":"Village","group":"Palestinian","status":"Depopulated"}},{"type":"Feature","geometry":{"type":"Point","coordinates":[34.992535,31.840461]},"properties":{"name_en":"Imwas","name_ar":"عمواس","slug":"imwas","type":"Village","group":"Palestinian","status":"Depopulated"}},{"type":"Feature","geometry":{"type":"Point","coordinates":[34.947836,31.902147]},"properties":{"name_en":"Innaba","name_ar":"عنابة","slug":"innaba","type":"Village","group":"Palestinian","status":"Depopulated"}},{"type":"Feature","geometry":{"type":"Point","coordinates":[34.863722,31.770133]},"properties":{"name_en":"Jilya","name_ar":"جليا","slug":"jilya","type":"Village","group":"Palestinian","status":"Depopulated"}},{"type":"Feature","geometry":{"type":"Point","coordinates":[34.946304,31.929847]},"properties":{"name_en":"Jimzu","name_ar":"جمزو","slug":"jimzu","type":"Village","group":"Palestinian","status":"Depopulated"}},{"type":"Feature","geometry":{"type":"Point","coordinates":[34.906449,31.967826]},"properties":{"name_en":"Jindus","name_ar":"جنداس","slug":"jindas","type":"Village","group":"Palestinian","status":"Depopulated"}},{"type":"Feature","geometry":{"type":"Point","coordinates":[34.820269,31.877785]},"properties":{"name_en":"Kefar Bilu","name_ar":"كفار بيلو","slug":"kefar-bilu","type":"Settlement","group":"Jewish","status":"Remaining"}},{"type":"Feature","geometry":{"type":"Point","coordinates":[34.836327,31.732668]},"properties":{"name_en":"Kefar Menahem","name_ar":"كفار مناحيم","slug":"kefar-menahem","type":"Settlement","group":"Jewish","status":"Remaining"}},{"type":"Feature","geometry":{"type":"Point","coordinates":[34.923268,32.077107]},"properties":{"name_en":"Kefar Sirkin","name_ar":"كفار سيركين","slug":"kefar-sirkin","type":"Settlement","group":"Jewish","status":"Remaining"}},{"type":"Feature","geometry":{"type":"Point","coordinates":[34.947861,31.792357]},"properties":{"name_en":"Kefar Uriya","name_ar":"كفار أوريا","slug":"kefar-uriyya","type":"Settlement","group":"Jewish","status":"Remaining"}},{"type":"Feature","geometry":{"type":"Point","coordinates":[34.944884,31.946046]},"properties":{"name_en":"Khirbat al-Qubeiba","name_ar":"خربة القبيبة","slug":"khirbat-al-qubeiba","type":"Community","group":"Palestinian","status":"Depopulated"}},{"type":"Feature","geometry":{"type":"Point","coordinates":[34.950769,31.836707]},"properties":{"name_en":"al-Khalayil","name_ar":"الخلايل","slug":"al-khalayil","type":"Village","group":"Palestinian","status":"Depopulated"}},{"type":"Feature","geometry":{"type":"Point","coordinates":[35.070575,31.944195]},"properties":{"name_en":"Kharbata","name_ar":"خربتا","slug":"kharbata","type":"Village","group":"Palestinian","status":"Remaining"}},{"type":"Feature","geometry":{"type":"Point","coordinates":[34.959784,31.913135]},"properties":{"name_en":"Kharruba","name_ar":"خروبة","slug":"kharruba","type":"Village","group":"Palestinian","status":"Depopulated"}},{"type":"Feature","geometry":{"type":"Point","coordinates":[34.829838,31.762484]},"properties":{"name_en":"al-Khayma","name_ar":"الخيمة","slug":"al-khayma","type":"Village","group":"Palestinian","status":"Depopulated"}},{"type":"Feature","geometry":{"type":"Point","coordinates":[35.004828,32.055539]},"properties":{"name_en":"Khirbat Mismar","name_ar":"خربة مسمار","slug":"khirbat-mismar","type":"Community","group":"Palestinian","status":"Abandoned"}},{"type":"Feature","geometry":{"type":"Point","coordinates":[34.90364,31.819502]},"properties":{"name_en":"Khulda","name_ar":"خلدة","slug":"khulda","type":"Village","group":"Palestinian","status":"Depopulated"}},{"type":"Feature","geometry":{"type":"Point","coordinates":[34.88258,31.83139]},"properties":{"name_en":"Hulda","name_ar":"حلدة","slug":"hulda","type":"Settlement","group":"Jewish","status":"Remaining"}},{"type":"Feature","geometry":{"type":"Point","coordinates":[34.957633,31.888789]},"properties":{"name_en":"al-Kunayyisa","name_ar":"الكنيسة","slug":"al-kunayyisa","type":"Village","group":"Palestinian","status":"Depopulated"}},{"type":"Feature","geometry":{"type":"Point","coordinates":[34.982711,31.831472]},"properties":{"name_en":"al-Latrun","name_ar":"اللطرون","slug":"al-latrun","type":"Village","group":"Palestinian","status":"Depopulated"}},{"type":"Feature","geometry":{"type":"Point","coordinates":[35.038241,32.033925]},"properties":{"name_en":"al-Lubban","name_ar":"اللبن","slug":"al-lubban","type":"Village","group":"Palestinian","status":"Remaining"}},{"type":"Feature","geometry":{"type":"Point","coordinates":[34.900155,31.954554]},"properties":{"name_en":"Lydda","name_ar":"اللد","slug":"lydda","type":"City","group":"Mixed","status":"Appropriated"}},{"type":"Feature","geometry":{"type":"Point","coordinates":[34.781967,31.838366]},"properties":{"name_en":"al-Maghar","name_ar":"المغار","slug":"al-maghar","type":"Village","group":"Palestinian","status":"Depopulated"}},{"type":"Feature","geometry":{"type":"Point","coordinates":[34.956983,32.08145]},"properties":{"name_en":"Majdal Yaba","name_ar":"مجدل يابا","slug":"majdal-yaba","type":"Village","group":"Palestinian","status":"Depopulated"}},{"type":"Feature","geometry":{"type":"Point","coordinates":[34.856372,31.838008]},"properties":{"name_en":"al-Mansura","name_ar":"المنصورة","slug":"al-mansura-ramle","type":"Village","group":"Palestinian","status":"Depopulated"}},{"type":"Feature","geometry":{"type":"Point","coordinates":[34.838646,31.854573]},"properties":{"name_en":"Mazkeret Batyah ('Eqron)","name_ar":"مزكيرت بتيا","slug":"mazkeret-batya","type":"Settlement","group":"Jewish","status":"Remaining"}},{"type":"Feature","geometry":{"type":"Point","coordinates":[35.004867,31.935297]},"properties":{"name_en":"Midya","name_ar":"المدية","slug":"midya","type":"Village","group":"Palestinian","status":"Remaining"}},{"type":"Feature","geometry":{"type":"Point","coordinates":[34.810491,31.802348]},"properties":{"name_en":"al-Mukhayzin","name_ar":"المخيزن","slug":"al-mukhayzin","type":"Village","group":"Mixed","status":"Depopulated"}},{"type":"Feature","geometry":{"type":"Point","coordinates":[34.950623,32.049179]},"properties":{"name_en":"al-Muzayri'a","name_ar":"المزيرعة","slug":"muzayria","type":"Village","group":"Palestinian","status":"Built over"}},{"type":"Feature","geometry":{"type":"Point","coordinates":[34.871992,31.871329]},"properties":{"name_en":"al-Na'ani","name_ar":"النعاني","slug":"al-naani","type":"Village","group":"Mixed","status":"Depopulated"}},{"type":"Feature","geometry":{"type":"Point","coordinates":[34.742337,31.945439]},"properties":{"name_en":"al-Nabi Rubin","name_ar":"النبي روبين","slug":"al-nabi-rubin-ramle","type":"Village","group":"Palestinian","status":"Depopulated"}},{"type":"Feature","geometry":{"type":"Point","coordinates":[35.022436,31.9469]},"properties":{"name_en":"Ni'lin","name_ar":"نعلين","slug":"nilin","type":"Village","group":"Palestinian","status":"Remaining"}},{"type":"Feature","geometry":{"type":"Point","coordinates":[34.778152,31.821944]},"properties":{"name_en":"Qatra","name_ar":"قطرة","slug":"qatra","type":"Village","group":"Palestinian","status":"Built over"}},{"type":"Feature","geometry":{"type":"Point","coordinates":[34.876137,31.779051]},"properties":{"name_en":"Qazaza","name_ar":"قزازة","slug":"qazaza","type":"Village","group":"Palestinian","status":"Depopulated"}},{"type":"Feature","geometry":{"type":"Point","coordinates":[35.010814,31.977559]},"properties":{"name_en":"Qibya","name_ar":"قبية","slug":"qibya","type":"Village","group":"Palestinian","status":"Remaining"}},{"type":"Feature","geometry":{"type":"Point","coordinates":[34.953006,31.866568]},"properties":{"name_en":"al-Qubab","name_ar":"القباب","slug":"al-qubab","type":"Village","group":"Palestinian","status":"Depopulated"}},{"type":"Feature","geometry":{"type":"Point","coordinates":[34.772664,31.895019]},"properties":{"name_en":"al-Qubayba","name_ar":"القبيبة","slug":"al-qubayba-ramle","type":"Village","group":"Palestinian","status":"Built over"}},{"type":"Feature","geometry":{"type":"Point","coordinates":[34.955126,32.037573]},"properties":{"name_en":"Qula","name_ar":"قولة","slug":"qula","type":"Village","group":"Palestinian","status":"Depopulated"}},{"type":"Feature","geometry":{"type":"Point","coordinates":[34.872346,31.925447]},"properties":{"name_en":"al-Ramla","name_ar":"الرملة","slug":"ramle","type":"City","group":"Mixed","status":"Appropriated"}},{"type":"Feature","geometry":{"type":"Point","coordinates":[35.018593,32.027758]},"properties":{"name_en":"Rantis","name_ar":"رنتيس","slug":"rantis","type":"Village","group":"Palestinian","status":"Remaining"}},{"type":"Feature","geometry":{"type":"Point","coordinates":[34.811437,31.895252]},"properties":{"name_en":"Rahavot","name_ar":"رحوبوت","slug":"rehovot","type":"City","group":"Jewish","status":"Remaining"}},{"type":"Feature","geometry":{"type":"Point","coordinates":[34.807615,31.961976]},"properties":{"name_en":"Rishon le Zion","name_ar":"ريشون لصيون","slug":"rishon-leziyyon","type":"City","group":"Jewish","status":"Remaining"}},{"type":"Feature","geometry":{"type":"Point","coordinates":[34.892775,31.784213]},"properties":{"name_en":"Sajad","name_ar":"سجد","slug":"sajad","type":"Village","group":"Palestinian","status":"Depopulated"}},{"type":"Feature","geometry":{"type":"Point","coordinates":[34.986693,31.869955]},"properties":{"name_en":"Salbit","name_ar":"سلبيت","slug":"salbit","type":"Village","group":"Palestinian","status":"Built over"}},{"type":"Feature","geometry":{"type":"Point","coordinates":[34.849424,31.958073]},"properties":{"name_en":"Sarfand al-'Amar","name_ar":"صرفند العمار","slug":"sarafand-amar","type":"Village","group":"Palestinian","status":"Depopulated"}},{"type":"Feature","geometry":{"type":"Point","coordinates":[34.805627,31.936149]},"properties":{"name_en":"Sarafand al-Kharab","name_ar":"صرفند الخراب","slug":"sarafand-al-kharab","type":"Village","group":"Palestinian","status":"Built over"}},{"type":"Feature","geometry":{"type":"Point","coordinates":[34.904494,31.841523]},"properties":{"name_en":"Saydun","name_ar":"صيدون","slug":"saydun","type":"Village","group":"Palestinian","status":"Depopulated"}},{"type":"Feature","geometry":{"type":"Point","coordinates":[35.050452,31.972441]},"properties":{"name_en":"Shabtin","name_ar":"شبتين","slug":"shabtin","type":"Village","group":"Palestinian","status":"Remaining"}},{"type":"Feature","geometry":{"type":"Point","coordinates":[34.813442,31.822272]},"properties":{"name_en":"Shahma","name_ar":"شحمة","slug":"shahma","type":"Village","group":"Palestinian","status":"Depopulated"}},{"type":"Feature","geometry":{"type":"Point","coordinates":[35.02044,31.917692]},"properties":{"name_en":"Shilta","name_ar":"شلتا","slug":"shilta","type":"Village","group":"Palestinian","status":"Built over"}},{"type":"Feature","geometry":{"type":"Point","coordinates":[35.039255,31.985969]},"properties":{"name_en":"Shuqba","name_ar":"شقبا","slug":"shuqba","type":"Village","group":"Palestinian","status":"Remaining"}},{"type":"Feature","geometry":{"type":"Point","coordinates":[34.81932,31.746292]},"properties":{"name_en":"al-Tina","name_ar":"التينة","slug":"al-tina","type":"Village","group":"Palestinian","status":"Depopulated"}},{"type":"Feature","geometry":{"type":"Point","coordinates":[34.942484,32.017025]},"properties":{"name_en":"al-Tira","name_ar":"الطيرة","slug":"al-tira-ramle","type":"Village","group":"Palestinian","status":"Built over"}},{"type":"Feature","geometry":{"type":"Point","coordinates":[34.854374,31.811844]},"properties":{"name_en":"Umm Kalkha","name_ar":"أم كلخة","slug":"umm-kalkha","type":"Village","group":"Palestinian","status":"Depopulated"}},{"type":"Feature","geometry":{"type":"Point","coordinates":[34.791818,31.925829]},"properties":{"name_en":"Wadi Hunayn","name_ar":"وادي حنين","slug":"wadi-haunayn","type":"Village","group":"Palestinian","status":"Built over"}},{"type":"Feature","geometry":{"type":"Point","coordinates":[34.796069,31.926664]},"properties":{"name_en":"Nes Ziyyona","name_ar":"Nes Ziyyona","slug":"nes-ziyyona","type":"City","group":"Jewish","status":"Remaining"}},{"type":"Feature","geometry":{"type":"Point","coordinates":[35.023684,31.841917]},"properties":{"name_en":"Yalu","name_ar":"يالو","slug":"yalu","type":"Village","group":"Palestinian","status":"Depopulated"}},{"type":"Feature","geometry":{"type":"Point","coordinates":[34.745681,31.865781]},"properties":{"name_en":"Yibna","name_ar":"يبنة","slug":"yibna","type":"Village","group":"Palestinian","status":"Built over"}},{"type":"Feature","geometry":{"type":"Point","coordinates":[34.969594,31.937821]},"properties":{"name_en":"Khirbat Zakariyya","name_ar":"خربة زكريا","slug":"khirbat-zakariyya","type":"Community","group":"Palestinian","status":"Depopulated"}},{"type":"Feature","geometry":{"type":"Point","coordinates":[34.788925,31.879478]},"properties":{"name_en":"Zarnuqa","name_ar":"زرنوقة","slug":"zarnuqa","type":"Village","group":"Mixed","status":"Built over"}},{"type":"Feature","geometry":{"type":"Point","coordinates":[35.514376,32.441554]},"properties":{"name_en":"Arab al-'Arida","name_ar":"عرب العريضة","slug":"arab-al-arida","type":"Village","group":"Mixed","status":"Depopulated"}},{"type":"Feature","geometry":{"type":"Point","coordinates":[35.50266,32.498084]},"properties":{"name_en":"Baysan","name_ar":"بيسان","slug":"beisan","type":"City","group":"Jewish","status":"Appropriated"}},{"type":"Feature","geometry":{"type":"Point","coordinates":[35.540392,32.528257]},"properties":{"name_en":"Arab al-Bawati","name_ar":"عرب البواطي","slug":"arab-al-bawati","type":"Village","group":"Palestinian","status":"Depopulated"}},{"type":"Feature","geometry":{"type":"Point","coordinates":[35.537667,32.440861]},"properties":{"name_en":"Arab al-Safa","name_ar":"عرب الصفا","slug":"arab-al-safa","type":"Village","group":"Palestinian","status":"Depopulated"}},{"type":"Feature","geometry":{"type":"Point","coordinates":[35.471325,32.469968]},"properties":{"name_en":"al-Ashrafiyya","name_ar":"الأشرفية","slug":"al-ashrafiyya","type":"Village","group":"Palestinian","status":"Depopulated"}},{"type":"Feature","geometry":{"type":"Point","coordinates":[35.557965,32.591695]},"properties":{"name_en":"al-Bashatiwa","name_ar":"البشاتوة","slug":"bashatwi","type":"Village","group":"Palestinian","status":"Depopulated"}},{"type":"Feature","geometry":{"type":"Point","coordinates":[35.43145,32.51713]},"properties":{"name_en":"Bet Alfa","name_ar":"بيت الفا","slug":"bet-alfa","type":"Settlement","group":"Jewish","status":"Remaining"}},{"type":"Feature","geometry":{"type":"Point","coordinates":[35.439344,32.550113]},"properties":{"name_en":"Bet HaShitta","name_ar":"بيت هاشيطة","slug":"bet-hashitta","type":"Settlement","group":"Jewish","status":"Remaining"}},{"type":"Feature","geometry":{"type":"Point","coordinates":[35.503076,32.607538]},"properties":{"name_en":"al-Bira","name_ar":"البيرة","slug":"al-bira-beisan","type":"Village","group":"Palestinian","status":"Depopulated"}},{"type":"Feature","geometry":{"type":"Point","coordinates":[35.474975,32.613342]},"properties":{"name_en":"Danna","name_ar":"دنة","slug":"danna","type":"Village","group":"Palestinian","status":"Depopulated"}},{"type":"Feature","geometry":{"type":"Point","coordinates":[35.39152,32.55841]},"properties":{"name_en":"En Harod (Me'uhad)","name_ar":"عين حرود","slug":"en-harod-meuhad","type":"Settlement","group":"Jewish","status":"Remaining"}},{"type":"Feature","geometry":{"type":"Point","coordinates":[35.493665,32.462777]},"properties":{"name_en":"Farwana","name_ar":"فرونة","slug":"farwana","type":"Village","group":"Palestinian","status":"Built over"}},{"type":"Feature","geometry":{"type":"Point","coordinates":[35.525703,32.39676]},"properties":{"name_en":"al-Fatur","name_ar":"الفاتور","slug":"al-fatur","type":"Village","group":"Palestinian","status":"Depopulated"}},{"type":"Feature","geometry":{"type":"Point","coordinates":[35.37205,32.56628]},"properties":{"name_en":"Geva'","name_ar":"غيفع","slug":"geva","type":"Settlement","group":"Jewish","status":"Remaining"}},{"type":"Feature","geometry":{"type":"Point","coordinates":[35.541713,32.502259]},"properties":{"name_en":"al-Ghazzawiyya","name_ar":"الغزاوية","slug":"al-ghazzawiyya","type":"Village","group":"Mixed","status":"Depopulated"}},{"type":"Feature","geometry":{"type":"Point","coordinates":[35.516501,32.544431]},"properties":{"name_en":"al-Hamidiyya","name_ar":"الحميدية","slug":"al-hamidiyya","type":"Village","group":"Mixed","status":"Depopulated"}},{"type":"Feature","geometry":{"type":"Point","coordinates":[35.500416,32.427813]},"properties":{"name_en":"al-Hamra","name_ar":"الحمرا","slug":"al-hamra-beisan","type":"Village","group":"Palestinian","status":"Depopulated"}},{"type":"Feature","geometry":{"type":"Point","coordinates":[35.427078,32.518001]},"properties":{"name_en":"Heftsi Bah","name_ar":"حفصى باه","slug":"hefzi-bah","type":"Settlement","group":"Jewish","status":"Remaining"}},{"type":"Feature","geometry":{"type":"Point","coordinates":[35.510679,32.567162]},"properties":{"name_en":"Jabbul","name_ar":"جبول","slug":"jabbul","type":"Village","group":"Mixed","status":"Depopulated"}},{"type":"Feature","geometry":{"type":"Point","coordinates":[35.563466,32.624253]},"properties":{"name_en":"Jisr aql-Majami","name_ar":"جسر المجامع","slug":"jisr-aql-majami","type":"Village","group":"Jewish","status":"Depopulated"}},{"type":"Feature","geometry":{"type":"Point","coordinates":[35.423074,32.645723]},"properties":{"name_en":"Kafr Misr","name_ar":"كفر مصر","slug":"kafr-misr","type":"Village","group":"Palestinian","status":"Remaining"}},{"type":"Feature","geometry":{"type":"Point","coordinates":[35.49179,32.592969]},"properties":{"name_en":"Kafra","name_ar":"كفرة","slug":"kafra","type":"Village","group":"Palestinian","status":"Depopulated"}},{"type":"Feature","geometry":{"type":"Point","coordinates":[35.521493,32.595634]},"properties":{"name_en":"Kawkab al-Hawa","name_ar":"كوكب الهوا","slug":"kawkab-al-hawa","type":"Village","group":"Palestinian","status":"Depopulated"}},{"type":"Feature","geometry":{"type":"Point","coordinates":[35.362483,32.568196]},"properties":{"name_en":"Kefar Yehtzhaq","name_ar":"كفار يحزقيل","slug":"kefar-yehezqel","type":"Settlement","group":"Jewish","status":"Remaining"}},{"type":"Feature","geometry":{"type":"Point","coordinates":[35.522174,32.420576]},"properties":{"name_en":"al-Khunayzir","name_ar":"الخنيزير","slug":"al-khunayzir","type":"Village","group":"Palestinian","status":"Depopulated"}},{"type":"Feature","geometry":{"type":"Point","coordinates":[35.557797,32.45555]},"properties":{"name_en":"Masil al-Jizl","name_ar":"مسيل الجزل","slug":"masil-al-jizl","type":"Community","group":"Mixed","status":"Depopulated"}},{"type":"Feature","geometry":{"type":"Point","coordinates":[35.475834,32.55959]},"properties":{"name_en":"al-Murassas","name_ar":"المرصص","slug":"al-murassas","type":"Village","group":"Palestinian","status":"Depopulated"}},{"type":"Feature","geometry":{"type":"Point","coordinates":[35.394997,32.565374]},"properties":{"name_en":"Qumya","name_ar":"قومية","slug":"qumya","type":"Village","group":"Palestinian","status":"Built over"}},{"type":"Feature","geometry":{"type":"Point","coordinates":[35.461952,32.512864]},"properties":{"name_en":"al-Sakhina","name_ar":"الساخنة","slug":"al-sakhina","type":"Village","group":"Mixed","status":"Depopulated"}},{"type":"Feature","geometry":{"type":"Point","coordinates":[35.486664,32.436938]},"properties":{"name_en":"al-Samiriyya","name_ar":"السامرية","slug":"al-samiriyya","type":"Village","group":"Palestinian","status":"Built over"}},{"type":"Feature","geometry":{"type":"Point","coordinates":[35.504816,32.653588]},"properties":{"name_en":"Sirin","name_ar":"سيرين","slug":"sirin","type":"Village","group":"Palestinian","status":"Depopulated"}},{"type":"Feature","geometry":{"type":"Point","coordinates":[35.445371,32.604402]},"properties":{"name_en":"al-Tayyiba","name_ar":"الطيبة","slug":"al-tayyiba-beisan","type":"Village","group":"Palestinian","status":"Remaining"}},{"type":"Feature","geometry":{"type":"Point","coordinates":[35.463708,32.495309]},"properties":{"name_en":"Tall al-Shawk","name_ar":"تل الشوك","slug":"tall-al-shawk","type":"Community","group":"Palestinian","status":"Depopulated"}},{"type":"Feature","geometry":{"type":"Point","coordinates":[35.39961,32.55623]},"properties":{"name_en":"Tel Yosef","name_ar":"تل يوسيف","slug":"tel-yosef","type":"Settlement","group":"Jewish","status":"Remaining"}},{"type":"Feature","geometry":{"type":"Point","coordinates":[35.45817,32.648424]},"properties":{"name_en":"al-Tira","name_ar":"الطيرة","slug":"al-tira-beisan","type":"Village","group":"Mixed","status":"Depopulated"}},{"type":"Feature","geometry":{"type":"Point","coordinates":[35.527687,32.421802]},"properties":{"name_en":"Tirat Zevi","name_ar":"Tirat Zevi","slug":"tirat-zevi","type":"Settlement","group":"Jewish","status":"Remaining"}},{"type":"Feature","geometry":{"type":"Point","coordinates":[35.523041,32.463412]},"properties":{"name_en":"Umm 'Ajra","name_ar":"أم عجرة","slug":"umm-ajra","type":"Community","group":"Palestinian","status":"Depopulated"}},{"type":"Feature","geometry":{"type":"Point","coordinates":[35.502124,32.621653]},"properties":{"name_en":"Wadi al-Bira","name_ar":"وادي البيرة","slug":"wadi-al-bira","type":"Community","group":"Palestinian","status":"Depopulated"}},{"type":"Feature","geometry":{"type":"Point","coordinates":[35.469313,32.576623]},"properties":{"name_en":"Yubla","name_ar":"يبلى","slug":"yubla","type":"Village","group":"Palestinian","status":"Depopulated"}},{"type":"Feature","geometry":{"type":"Point","coordinates":[35.548508,32.553703]},"properties":{"name_en":"Zab'a","name_ar":"زبعة","slug":"zaba","type":"Community","group":"Palestinian","status":"Depopulated"}},{"type":"Feature","geometry":{"type":"Point","coordinates":[34.764613,31.232392]},"properties":{"name_en":"al-'Auja","name_ar":"al-'Auja","slug":"al-auja-beersheba","type":"Community","group":"Palestinian","status":"Depopulated"}},{"type":"Feature","geometry":{"type":"Point","coordinates":[34.789048,31.239334]},"properties":{"name_en":"Beersheba","name_ar":"بئر السبع","slug":"beersheba","type":"City","group":"Jewish","status":"Appropriated"}},{"type":"Feature","geometry":{"type":"Point","coordinates":[34.46548,31.2109]},"properties":{"name_en":"Gevulot","name_ar":"Gevulot","slug":"gevulot","type":"Settlement","group":"Jewish","status":"Remaining"}},{"type":"Feature","geometry":{"type":"Point","coordinates":[34.686311,31.498705]},"properties":{"name_en":"al-Jammama","name_ar":"الجمـّامة","slug":"al-jammama","type":"Village","group":"Palestinian","status":"Depopulated"}},{"type":"Feature","geometry":{"type":"Point","coordinates":[34.70532,31.4975]},"properties":{"name_en":"Ruhama","name_ar":"Ruhama","slug":"ruhama","type":"Settlement","group":"Jewish","status":"Remaining"}},{"type":"Feature","geometry":{"type":"Point","coordinates":[34.72247,31.04391]},"properties":{"name_en":"Revivim","name_ar":"Revivim","slug":"revivim","type":"Settlement","group":"Jewish","status":"Remaining"}},{"type":"Feature","geometry":{"type":"Point","coordinates":[34.758968,31.23834]},"properties":{"name_en":"Ahywat Tribes","name_ar":"الاحيوات","slug":"ahywat-tribes","type":"Village","group":"Palestinian","status":"Depopulated"}},{"type":"Feature","geometry":{"type":"Point","coordinates":[34.743059,31.05982]},"properties":{"name_en":"Azazima Tribes","name_ar":"العزازمة","slug":"azazima-tribes","type":"Village","group":"Palestinian","status":"Depopulated"}},{"type":"Feature","geometry":{"type":"Point","coordinates":[34.763613,31.227913]},"properties":{"name_en":"Hanajira Tribes","name_ar":"حنجرة","slug":"hanajira-tribes","type":"Village","group":"Palestinian","status":"Depopulated"}},{"type":"Feature","geometry":{"type":"Point","coordinates":[34.763627,31.546971]},"properties":{"name_en":"Jubarat","name_ar":"الجبارات","slug":"jubarat","type":"Community","group":"Palestinian","status":"Depopulated"}},{"type":"Feature","geometry":{"type":"Point","coordinates":[35.173907,30.140203]},"properties":{"name_en":"Saidiyin Tribes","name_ar":"السعديين","slug":"saidiyin-tribes","type":"Village","group":"Palestinian","status":"Depopulated"}},{"type":"Feature","geometry":{"type":"Point","coordinates":[34.626384,31.262583]},"properties":{"name_en":"Abu Suhaiban","name_ar":"أبوصهيبان","slug":"abu-suhaiban","type":"Village","group":"Palestinian","status":"Depopulated"}},{"type":"Feature","geometry":{"type":"Point","coordinates":[35.115176,31.071651]},"properties":{"name_en":"Tayaha Tribes","name_ar":"التياها","slug":"tayaha-tribes","type":"Village","group":"Palestinian","status":"Depopulated"}},{"type":"Feature","geometry":{"type":"Point","coordinates":[35.26145,31.094859]},"properties":{"name_en":"Dhullam","name_ar":"الظلام","slug":"dhullam","type":"Village","group":"Palestinian","status":"Depopulated"}},{"type":"Feature","geometry":{"type":"Point","coordinates":[34.753554,31.227835]},"properties":{"name_en":"Huquq","name_ar":"حقوق","slug":"huquq","type":"Village","group":"Palestinian","status":"Depopulated"}},{"type":"Feature","geometry":{"type":"Point","coordinates":[34.744825,31.332709]},"properties":{"name_en":"Nutush","name_ar":"النتش","slug":"nutush","type":"Community","group":"Palestinian","status":"Depopulated"}},{"type":"Feature","geometry":{"type":"Point","coordinates":[34.606128,31.452598]},"properties":{"name_en":"Gatatweh (Tayaha)","name_ar":"القطاطوة‌تياها","slug":"gatatweh-tayaha","type":"Village","group":"Palestinian","status":"Depopulated"}},{"type":"Feature","geometry":{"type":"Point","coordinates":[34.906999,31.243921]},"properties":{"name_en":"Qudeirat","name_ar":"القديرات","slug":"qudeirat","type":"Village","group":"Palestinian","status":"Depopulated"}},{"type":"Feature","geometry":{"type":"Point","coordinates":[34.895114,31.3481]},"properties":{"name_en":"Ramadan","name_ar":"الرمضان","slug":"ramadan","type":"Village","group":"Palestinian","status":"Depopulated"}},{"type":"Feature","geometry":{"type":"Point","coordinates":[34.756584,31.235085]},"properties":{"name_en":"Shallaliyin","name_ar":"الشلالين","slug":"shallaliyin","type":"Village","group":"Palestinian","status":"Depopulated"}},{"type":"Feature","geometry":{"type":"Point","coordinates":[34.351165,31.324878]},"properties":{"name_en":"Abasan al-Kabur","name_ar":"عبسان","slug":"abasan-al-kabur","type":"City","group":"Palestinian","status":"Remaining"}},{"type":"Feature","geometry":{"type":"Point","coordinates":[34.418164,31.468567]},"properties":{"name_en":"al-Mughraqa (Abu Middein)","name_ar":"المُغْراقَه (ابو مِدِّين)","slug":"al-mughraqa-abu-middein","type":"Village","group":"Palestinian","status":"Remaining"}},{"type":"Feature","geometry":{"type":"Point","coordinates":[34.657625,31.824521]},"properties":{"name_en":"Arab Suqrir","name_ar":"عرب صقرير","slug":"arab-suqrir-abu-suweirih","type":"Village","group":"Palestinian","status":"Depopulated"}},{"type":"Feature","geometry":{"type":"Point","coordinates":[34.324047,31.34361]},"properties":{"name_en":"Bani Suheila","name_ar":"بني سهيلة","slug":"bani-suheila","type":"City","group":"Palestinian","status":"Remaining"}},{"type":"Feature","geometry":{"type":"Point","coordinates":[34.579155,31.624188]},"properties":{"name_en":"Barbara","name_ar":"بربرة","slug":"barbara","type":"Village","group":"Palestinian","status":"Built over"}},{"type":"Feature","geometry":{"type":"Point","coordinates":[34.700783,31.776047]},"properties":{"name_en":"Barqa","name_ar":"برقة","slug":"barqa","type":"Village","group":"Palestinian","status":"Depopulated"}},{"type":"Feature","geometry":{"type":"Point","coordinates":[34.699375,31.758057]},"properties":{"name_en":"al-Batani al-Gharbi","name_ar":"البطاني الغربي","slug":"al-batani-al-gharbi","type":"Village","group":"Palestinian","status":"Depopulated"}},{"type":"Feature","geometry":{"type":"Point","coordinates":[34.723135,31.752181]},"properties":{"name_en":"al-Batani al-Sharqi","name_ar":"البطاني الشرقي","slug":"al-batani-al-sharqi","type":"Village","group":"Palestinian","status":"Depopulated"}},{"type":"Feature","geometry":{"type":"Point","coordinates":[34.72144,31.737078]},"properties":{"name_en":"Beer Tuvya","name_ar":"بير طوفيا","slug":"beer-toviyya","type":"Settlement","group":"Jewish","status":"Remaining"}},{"type":"Feature","geometry":{"type":"Point","coordinates":[34.706581,31.66141]},"properties":{"name_en":"Bayt 'Affa","name_ar":"بيت عفا","slug":"bayt-affa","type":"Village","group":"Palestinian","status":"Depopulated"}},{"type":"Feature","geometry":{"type":"Point","coordinates":[34.683176,31.722924]},"properties":{"name_en":"Bayt Daras","name_ar":"بيت دراس","slug":"bayt-daras","type":"Village","group":"Palestinian","status":"Depopulated"}},{"type":"Feature","geometry":{"type":"Point","coordinates":[34.534872,31.541522]},"properties":{"name_en":"Bayt Hannun","name_ar":"بيت حانون","slug":"bayt-hannun","type":"City","group":"Palestinian","status":"Remaining"}},{"type":"Feature","geometry":{"type":"Point","coordinates":[34.580814,31.602825]},"properties":{"name_en":"Bayt Jirja","name_ar":"بيت جرجا","slug":"bayt-jirja","type":"Village","group":"Palestinian","status":"Depopulated"}},{"type":"Feature","geometry":{"type":"Point","coordinates":[34.499736,31.548919]},"properties":{"name_en":"Bayt Lahiya","name_ar":"بيت لاهية","slug":"bayt-lahiya","type":"City","group":"Palestinian","status":"Remaining"}},{"type":"Feature","geometry":{"type":"Point","coordinates":[34.639078,31.623439]},"properties":{"name_en":"Bayt Tima","name_ar":"بيت طيما","slug":"bayt-tima","type":"Village","group":"Palestinian","status":"Depopulated"}},{"type":"Feature","geometry":{"type":"Point","coordinates":[34.81804,31.688424]},"properties":{"name_en":"Bi'lin","name_ar":"بعلين","slug":"bilin-gaza","type":"Village","group":"Palestinian","status":"Depopulated"}},{"type":"Feature","geometry":{"type":"Point","coordinates":[34.640659,31.570729]},"properties":{"name_en":"Burayr","name_ar":"برير","slug":"burayr","type":"Village","group":"Palestinian","status":"Depopulated"}},{"type":"Feature","geometry":{"type":"Point","coordinates":[34.3516,31.418941]},"properties":{"name_en":"Dayr al-Balah","name_ar":"دير البلح","slug":"dayr-al-balah","type":"City","group":"Palestinian","status":"Remaining"}},{"type":"Feature","geometry":{"type":"Point","coordinates":[34.555462,31.574789]},"properties":{"name_en":"Dayr Sunayd","name_ar":"دير سنيد","slug":"dayr-sunayd","type":"Village","group":"Palestinian","status":"Depopulated"}},{"type":"Feature","geometry":{"type":"Point","coordinates":[34.567389,31.558344]},"properties":{"name_en":"Dimra","name_ar":"دمرة","slug":"dimra","type":"Village","group":"Palestinian","status":"Built over"}},{"type":"Feature","geometry":{"type":"Point","coordinates":[34.748692,31.624688]},"properties":{"name_en":"al-Faluja","name_ar":"الفالوجة","slug":"al-faluja","type":"Village","group":"Palestinian","status":"Depopulated"}},{"type":"Feature","geometry":{"type":"Point","coordinates":[34.713194,31.789731]},"properties":{"name_en":"Gan Yavne","name_ar":"جان يفنه","slug":"gan-yavne","type":"Settlement","group":"Jewish","status":"Remaining"}},{"type":"Feature","geometry":{"type":"Point","coordinates":[34.466,31.501873]},"properties":{"name_en":"Gaza","name_ar":"غزة","slug":"gaza","type":"City","group":"Palestinian","status":"Remaining"}},{"type":"Feature","geometry":{"type":"Point","coordinates":[34.59175,31.692954]},"properties":{"name_en":"Hamama","name_ar":"حمامة","slug":"hamama","type":"Village","group":"Palestinian","status":"Depopulated"}},{"type":"Feature","geometry":{"type":"Point","coordinates":[34.740901,31.651776]},"properties":{"name_en":"Hatta","name_ar":"حتا","slug":"hatta","type":"Village","group":"Palestinian","status":"Depopulated"}},{"type":"Feature","geometry":{"type":"Point","coordinates":[34.546616,31.60613]},"properties":{"name_en":"Hiribya","name_ar":"هربيا","slug":"hiribya","type":"Village","group":"Mixed","status":"Built over"}},{"type":"Feature","geometry":{"type":"Point","coordinates":[34.622577,31.510613]},"properties":{"name_en":"Huj","name_ar":"هوج","slug":"huj","type":"Village","group":"Mixed","status":"Built over"}},{"type":"Feature","geometry":{"type":"Point","coordinates":[34.649518,31.600424]},"properties":{"name_en":"Hulayqat","name_ar":"حليقات","slug":"hulayqat","type":"Village","group":"Palestinian","status":"Depopulated"}},{"type":"Feature","geometry":{"type":"Point","coordinates":[34.698513,31.677152]},"properties":{"name_en":"Ibdis","name_ar":"عبدس","slug":"ibdis","type":"Village","group":"Palestinian","status":"Depopulated"}},{"type":"Feature","geometry":{"type":"Point","coordinates":[34.784204,31.607375]},"properties":{"name_en":"Iraq al-Manshiyya","name_ar":"عراق المنشية","slug":"iraq-al-manshiyya","type":"Village","group":"Mixed","status":"Built over"}},{"type":"Feature","geometry":{"type":"Point","coordinates":[34.694123,31.647641]},"properties":{"name_en":"Iraq Suwaydan","name_ar":"عراق سويدان","slug":"iraq-suwaydan","type":"Village","group":"Palestinian","status":"Depopulated"}},{"type":"Feature","geometry":{"type":"Point","coordinates":[34.660207,31.755311]},"properties":{"name_en":"Isdud","name_ar":"إسدود","slug":"isdud","type":"Village","group":"Mixed","status":"Depopulated"}},{"type":"Feature","geometry":{"type":"Point","coordinates":[34.483669,31.526429]},"properties":{"name_en":"Jabaliya","name_ar":"جباليا","slug":"jabaliya","type":"City","group":"Palestinian","status":"Remaining"}},{"type":"Feature","geometry":{"type":"Point","coordinates":[34.749889,31.692331]},"properties":{"name_en":"al-Jaladiyya","name_ar":"الجلدية","slug":"al-jaladiyya","type":"Village","group":"Palestinian","status":"Depopulated"}},{"type":"Feature","geometry":{"type":"Point","coordinates":[34.597091,31.628621]},"properties":{"name_en":"al-Jiyya","name_ar":"الجية","slug":"al-jiyya","type":"Village","group":"Palestinian","status":"Depopulated"}},{"type":"Feature","geometry":{"type":"Point","coordinates":[34.654111,31.681926]},"properties":{"name_en":"Julis","name_ar":"جولس","slug":"julis-gaza","type":"Village","group":"Palestinian","status":"Depopulated"}},{"type":"Feature","geometry":{"type":"Point","coordinates":[34.554512,31.665856]},"properties":{"name_en":"al-Jura","name_ar":"الجورة","slug":"al-jura-gaza","type":"Village","group":"Palestinian","status":"Depopulated"}},{"type":"Feature","geometry":{"type":"Point","coordinates":[34.772248,31.658749]},"properties":{"name_en":"Jusayr","name_ar":"جسير","slug":"jusayr","type":"Village","group":"Palestinian","status":"Depopulated"}},{"type":"Feature","geometry":{"type":"Point","coordinates":[34.726255,31.642548]},"properties":{"name_en":"Karatiyya","name_ar":"كرتيا","slug":"karatiyya","type":"Village","group":"Palestinian","status":"Depopulated"}},{"type":"Feature","geometry":{"type":"Point","coordinates":[34.661217,31.477861]},"properties":{"name_en":"Kawfakha","name_ar":"كوفخة","slug":"kawfakha","type":"Village","group":"Palestinian","status":"Depopulated"}},{"type":"Feature","geometry":{"type":"Point","coordinates":[34.661706,31.630703]},"properties":{"name_en":"Kawkaba","name_ar":"كوكبا","slug":"kawkaba","type":"Village","group":"Palestinian","status":"Depopulated"}},{"type":"Feature","geometry":{"type":"Point","coordinates":[34.732789,31.717748]},"properties":{"name_en":"Kefar Warburg","name_ar":"كفار فاربورغ","slug":"kefar-warburg","type":"Settlement","group":"Jewish","status":"Remaining"}},{"type":"Feature","geometry":{"type":"Point","coordinates":[34.356614,31.306115]},"properties":{"name_en":"Kh.Khuza'a","name_ar":"خربة اخزاعة","slug":"khirbat-khuzaa","type":"Village","group":"Palestinian","status":"Remaining"}},{"type":"Feature","geometry":{"type":"Point","coordinates":[34.302686,31.34323]},"properties":{"name_en":"Khan Yunis","name_ar":"خان يونس","slug":"khan-yunis","type":"City","group":"Palestinian","status":"Remaining"}},{"type":"Feature","geometry":{"type":"Point","coordinates":[34.561662,31.648639]},"properties":{"name_en":"al-Khisas","name_ar":"الخصاص","slug":"khirbat-khisas","type":"Village","group":"Palestinian","status":"Depopulated"}},{"type":"Feature","geometry":{"type":"Point","coordinates":[34.586681,31.669063]},"properties":{"name_en":"al-Majdal","name_ar":"المجدل","slug":"al-majdal-gaza","type":"Town","group":"Palestinian","status":"Built over"}},{"type":"Feature","geometry":{"type":"Point","coordinates":[34.785119,31.757892]},"properties":{"name_en":"al-Masmiyya al-Kabira","name_ar":"المسمية الكبيرة","slug":"al-masmiyya-al-kabira","type":"Village","group":"Palestinian","status":"Depopulated"}},{"type":"Feature","geometry":{"type":"Point","coordinates":[34.798557,31.752468]},"properties":{"name_en":"al-Masmiyya al-Saghira (Huraniya)","name_ar":"المسمية الصغيرة","slug":"al-masmiyya-al-saghira-huraniya","type":"Village","group":"Palestinian","status":"Depopulated"}},{"type":"Feature","geometry":{"type":"Point","coordinates":[34.611249,31.466362]},"properties":{"name_en":"al-Muharraqa","name_ar":"المحرقة","slug":"al-muharraqa","type":"Village","group":"Palestinian","status":"Depopulated"}},{"type":"Feature","geometry":{"type":"Point","coordinates":[34.59686,31.553006]},"properties":{"name_en":"Najd","name_ar":"نجد","slug":"najd","type":"Village","group":"Palestinian","status":"Depopulated"}},{"type":"Feature","geometry":{"type":"Point","coordinates":[34.481553,31.530711]},"properties":{"name_en":"Nazla","name_ar":"النزلة","slug":"nazla","type":"Village","group":"Palestinian","status":"Remaining"}},{"type":"Feature","geometry":{"type":"Point","coordinates":[34.68368,31.662153]},"properties":{"name_en":"Negba","name_ar":"نغبة","slug":"negba","type":"Settlement","group":"Jewish","status":"Remaining"}},{"type":"Feature","geometry":{"type":"Point","coordinates":[34.572403,31.646136]},"properties":{"name_en":"Ni'ilya","name_ar":"نعليا","slug":"niilya","type":"Village","group":"Palestinian","status":"Depopulated"}},{"type":"Feature","geometry":{"type":"Point","coordinates":[34.36798,31.437281]},"properties":{"name_en":"Nuseirat","name_ar":"نصيرات","slug":"nuseirat","type":"Community","group":"Palestinian","status":"Remaining"}},{"type":"Feature","geometry":{"type":"Point","coordinates":[34.761904,31.739026]},"properties":{"name_en":"Qastina","name_ar":"قسطينة","slug":"qastina","type":"Village","group":"Palestinian","status":"Depopulated"}},{"type":"Feature","geometry":{"type":"Point","coordinates":[34.24359,31.297493]},"properties":{"name_en":"Rafah","name_ar":"رفح","slug":"rafah","type":"City","group":"Palestinian","status":"Remaining"}},{"type":"Feature","geometry":{"type":"Point","coordinates":[34.703889,31.699975]},"properties":{"name_en":"al-Sawafir al-Gharbiyya","name_ar":"السوافير الغربية","slug":"al-sawafir-al-gharbiyya","type":"Village","group":"Palestinian","status":"Depopulated"}},{"type":"Feature","geometry":{"type":"Point","coordinates":[34.704208,31.714025]},"properties":{"name_en":"al-Sawafir al-Shamaliyya","name_ar":"السوافير الشمالية","slug":"al-sawafir-al-shamaliyya","type":"Village","group":"Palestinian","status":"Depopulated"}},{"type":"Feature","geometry":{"type":"Point","coordinates":[34.712581,31.700138]},"properties":{"name_en":"al-Sawafir al-Sharqiyya","name_ar":"السوافير الشرقية","slug":"al-sawafir-al-sharqiyya","type":"Village","group":"Palestinian","status":"Depopulated"}},{"type":"Feature","geometry":{"type":"Point","coordinates":[34.607369,31.56718]},"properties":{"name_en":"Simsim","name_ar":"سمسم","slug":"simsim","type":"Village","group":"Mixed","status":"Depopulated"}},{"type":"Feature","geometry":{"type":"Point","coordinates":[34.794836,31.665313]},"properties":{"name_en":"Summil","name_ar":"صميل","slug":"summil","type":"Village","group":"Palestinian","status":"Depopulated"}},{"type":"Feature","geometry":{"type":"Point","coordinates":[34.337436,31.393778]},"properties":{"name_en":"Sumeiri","name_ar":"سميري","slug":"sumeiri","type":"Village","group":"Palestinian","status":"Remaining"}},{"type":"Feature","geometry":{"type":"Point","coordinates":[34.77301,31.725804]},"properties":{"name_en":"Tall al-Turmus","name_ar":"تل الترمس","slug":"tall-al-turmus","type":"Village","group":"Palestinian","status":"Depopulated"}},{"type":"Feature","geometry":{"type":"Point","coordinates":[34.748482,31.766288]},"properties":{"name_en":"Yasur","name_ar":"ياصور","slug":"yasur-gaza","type":"Village","group":"Palestinian","status":"Built over"}},{"type":"Feature","geometry":{"type":"Point","coordinates":[35.137713,32.614397]},"properties":{"name_en":"Abu Shusha","name_ar":"أبو شوشة","slug":"abu-shusha-haifa","type":"Village","group":"Palestinian","status":"Depopulated"}},{"type":"Feature","geometry":{"type":"Point","coordinates":[35.125851,32.63504]},"properties":{"name_en":"Abu Zurayq","name_ar":"أبو زريق","slug":"abu-zurayq","type":"Village","group":"Palestinian","status":"Depopulated"}},{"type":"Feature","geometry":{"type":"Point","coordinates":[34.908908,32.451172]},"properties":{"name_en":"Arab al-Fuqara'","name_ar":"عرب الفقراء","slug":"arab-al-fuqara","type":"Village","group":"Palestinian","status":"Depopulated"}},{"type":"Feature","geometry":{"type":"Point","coordinates":[34.881561,32.423021]},"properties":{"name_en":"Arab al-Nufay'at","name_ar":"عرب النفيعات","slug":"arab-al-nufayat","type":"Village","group":"Palestinian","status":"Depopulated"}},{"type":"Feature","geometry":{"type":"Point","coordinates":[35.09739,32.492869]},"properties":{"name_en":"Ar'ara","name_ar":"أم الشوف","slug":"arara","type":"Village","group":"Palestinian","status":"Remaining"}},{"type":"Feature","geometry":{"type":"Point","coordinates":[35.043038,32.772346]},"properties":{"name_en":"Balad al-Shaykh","name_ar":"بلد الشيخ","slug":"balad-al-shaykh","type":"Village","group":"Palestinian","status":"Built over"}},{"type":"Feature","geometry":{"type":"Point","coordinates":[35.191496,32.736576]},"properties":{"name_en":"Bethlehem (Galilee)","name_ar":"بيت لحم","slug":"bethlehem-galilee","type":"Village","group":"Palestinian","status":"Built over"}},{"type":"Feature","geometry":{"type":"Point","coordinates":[35.004234,32.596068]},"properties":{"name_en":"Bet Shelomo","name_ar":"حيفا","slug":"bat-shelomo","type":"Settlement","group":"Jewish","status":"Remaining"}},{"type":"Feature","geometry":{"type":"Point","coordinates":[34.949985,32.521179]},"properties":{"name_en":"Binyamina","name_ar":"بينيامينا","slug":"binyamina-givat-ada","type":"Settlement","group":"Jewish","status":"Remaining"}},{"type":"Feature","geometry":{"type":"Point","coordinates":[34.975606,32.558524]},"properties":{"name_en":"Bureika","name_ar":"عين حوض","slug":"burayka","type":"Village","group":"Palestinian","status":"Built over"}},{"type":"Feature","geometry":{"type":"Point","coordinates":[35.093759,32.553164]},"properties":{"name_en":"al-Butaymat","name_ar":"البطيمات","slug":"al-butaymat","type":"Village","group":"Palestinian","status":"Depopulated"}},{"type":"Feature","geometry":{"type":"Point","coordinates":[35.077539,32.602745]},"properties":{"name_en":"Daliyat al-Rawha'","name_ar":"دالية الروحاء","slug":"daliyat-al-rawhaa","type":"Village","group":"Mixed","status":"Depopulated"}},{"type":"Feature","geometry":{"type":"Point","coordinates":[34.919594,32.460897]},"properties":{"name_en":"al-Dumayri","name_ar":"الدميرة","slug":"al-dumayri","type":"Village","group":"Palestinian","status":"Depopulated"}},{"type":"Feature","geometry":{"type":"Point","coordinates":[35.101851,32.596436]},"properties":{"name_en":"En HaShofet","name_ar":"جعارة","slug":"en-hashofet","type":"Settlement","group":"Jewish","status":"Remaining"}},{"type":"Feature","geometry":{"type":"Point","coordinates":[35.0815,32.8703]},"properties":{"name_en":"Emeq Tsevulun","name_ar":"عيمق زبلون","slug":"emeq-tsevulun","type":"Village","group":"Mixed","status":"Remaining"}},{"type":"Feature","geometry":{"type":"Point","coordinates":[35.144831,32.60796]},"properties":{"name_en":"al-Ghubayya al-Tahta","name_ar":"الغبيّة التحتا","slug":"al-ghubayya-al-tahta","type":"Village","group":"Palestinian","status":"Depopulated"}},{"type":"Feature","geometry":{"type":"Point","coordinates":[34.91851,32.43568]},"properties":{"name_en":"Hadara","name_ar":"خضيرة","slug":"hadera","type":"City","group":"Jewish","status":"Remaining"}},{"type":"Feature","geometry":{"type":"Point","coordinates":[35.00154,32.815367]},"properties":{"name_en":"Haifa","name_ar":"حيفا","slug":"haifa","type":"City","group":"Mixed","status":"Appropriated"}},{"type":"Feature","geometry":{"type":"Point","coordinates":[35.1195,32.644]},"properties":{"name_en":"Haz Zorea'","name_ar":"ها زوريع","slug":"hazorea","type":"Settlement","group":"Jewish","status":"Remaining"}},{"type":"Feature","geometry":{"type":"Point","coordinates":[35.192518,32.822238]},"properties":{"name_en":"Ibillin","name_ar":"إعبلين","slug":"ibillin","type":"Village","group":"Palestinian","status":"Depopulated"}},{"type":"Feature","geometry":{"type":"Point","coordinates":[34.922366,32.547401]},"properties":{"name_en":"Kabara","name_ar":"كبارة","slug":"kabara","type":"Community","group":"Palestinian","status":"Depopulated"}},{"type":"Feature","geometry":{"type":"Point","coordinates":[35.054056,32.505445]},"properties":{"name_en":"Kafr Qari'","name_ar":"كفر قرع","slug":"kafr-qari","type":"Village","group":"Palestinian","status":"Remaining"}},{"type":"Feature","geometry":{"type":"Point","coordinates":[35.118489,32.573671]},"properties":{"name_en":"al-Kafrayn","name_ar":"الكفرين","slug":"al-kafrayn","type":"Village","group":"Palestinian","status":"Depopulated"}},{"type":"Feature","geometry":{"type":"Point","coordinates":[34.914957,32.548207]},"properties":{"name_en":"Khirbat Jisr al-Zarqa","name_ar":"Khirbat Jisr al-Zarqa","slug":"khirbat-jisr-al-zarqa","type":"Village","group":"Palestinian","status":"Remaining"}},{"type":"Feature","geometry":{"type":"Point","coordinates":[35.11599,32.791774]},"properties":{"name_en":"Kefar HaMakkabbi","name_ar":"كفار ها مكابى","slug":"kefar-hamakkabbi","type":"Settlement","group":"Jewish","status":"Remaining"}},{"type":"Feature","geometry":{"type":"Point","coordinates":[35.066616,32.555716]},"properties":{"name_en":"Khubbayza","name_ar":"خبيزة","slug":"khubbayza","type":"Village","group":"Palestinian","status":"Depopulated"}},{"type":"Feature","geometry":{"type":"Point","coordinates":[35.222902,32.613809]},"properties":{"name_en":"Khirbat Lid","name_ar":"خربة لد","slug":"khirbat-lid","type":"Village","group":"Palestinian","status":"Depopulated"}},{"type":"Feature","geometry":{"type":"Point","coordinates":[35.172532,32.594468]},"properties":{"name_en":"al-Mansi","name_ar":"المنسي","slug":"al-mansi","type":"Village","group":"Palestinian","status":"Depopulated"}},{"type":"Feature","geometry":{"type":"Point","coordinates":[35.07611,32.74455]},"properties":{"name_en":"Mesheq Yagur","name_ar":"ميشق ياجور","slug":"yagur","type":"Settlement","group":"Jewish","status":"Remaining"}},{"type":"Feature","geometry":{"type":"Point","coordinates":[35.142356,32.610928]},"properties":{"name_en":"Mishmar Ha'Emeq","name_ar":"مشمار هاعيمق","slug":"mishmar-haemeq","type":"Settlement","group":"Jewish","status":"Remaining"}},{"type":"Feature","geometry":{"type":"Point","coordinates":[35.051545,32.76481]},"properties":{"name_en":"Nesher","name_ar":"نيشر","slug":"nesher","type":"City","group":"Jewish","status":"Remaining"}},{"type":"Feature","geometry":{"type":"Point","coordinates":[34.971186,32.478264]},"properties":{"name_en":"Pardes Hanna","name_ar":"برديس حنا \\ كركور","slug":"pardes-hanna-karkur","type":"Settlement","group":"Jewish","status":"Remaining"}},{"type":"Feature","geometry":{"type":"Point","coordinates":[35.03112,32.528304]},"properties":{"name_en":"Qannir","name_ar":"قنير","slug":"qannir","type":"Village","group":"Palestinian","status":"Depopulated"}},{"type":"Feature","geometry":{"type":"Point","coordinates":[34.892349,32.502329]},"properties":{"name_en":"Qisariya","name_ar":"قيسارية","slug":"qisarya","type":"Village","group":"Mixed","status":"Depopulated"}},{"type":"Feature","geometry":{"type":"Point","coordinates":[35.09417,32.61071]},"properties":{"name_en":"Ramat HaShofet","name_ar":"رامات هاشوفيت","slug":"ramat-hashofet","type":"Settlement","group":"Jewish","status":"Remaining"}},{"type":"Feature","geometry":{"type":"Point","coordinates":[35.121325,32.792714]},"properties":{"name_en":"Ramat Yohanan","name_ar":"رامات يوحنان","slug":"ramat-yohanan","type":"Settlement","group":"Jewish","status":"Remaining"}},{"type":"Feature","geometry":{"type":"Point","coordinates":[35.085972,32.61986]},"properties":{"name_en":"al-Rihaniyya","name_ar":"الريحانية","slug":"al-rihaniyya-haifa","type":"Village","group":"Palestinian","status":"Depopulated"}},{"type":"Feature","geometry":{"type":"Point","coordinates":[35.023344,32.57294]},"properties":{"name_en":"Sabbarin","name_ar":"صبارين","slug":"sabbarin","type":"Village","group":"Palestinian","status":"Depopulated"}},{"type":"Feature","geometry":{"type":"Point","coordinates":[35.16942,32.805046]},"properties":{"name_en":"Shafa 'Amr","name_ar":"شفا عمرو","slug":"shafa-amr","type":"City","group":"Palestinian","status":"Remaining"}},{"type":"Feature","geometry":{"type":"Point","coordinates":[35.001192,32.557538]},"properties":{"name_en":"al-Sindiyana","name_ar":"السنديانة","slug":"al-sindiyana","type":"Village","group":"Palestinian","status":"Depopulated"}},{"type":"Feature","geometry":{"type":"Point","coordinates":[34.974355,32.762317]},"properties":{"name_en":"al-Tira","name_ar":"الطيرة","slug":"al-tira-haifa","type":"Village","group":"Palestinian","status":"Built over"}},{"type":"Feature","geometry":{"type":"Point","coordinates":[35.048483,32.553215]},"properties":{"name_en":"Umm al-Shawf","name_ar":"ام الشوف","slug":"umm-al-shawf","type":"Village","group":"Palestinian","status":"Depopulated"}},{"type":"Feature","geometry":{"type":"Point","coordinates":[35.064801,32.64744]},"properties":{"name_en":"Umm al-Zinat","name_ar":"أم الزينات","slug":"umm-al-zinat","type":"Village","group":"Palestinian","status":"Depopulated"}},{"type":"Feature","geometry":{"type":"Point","coordinates":[35.115623,32.795065]},"properties":{"name_en":"Usha","name_ar":"أوشا","slug":"usha","type":"Settlement","group":"Jewish","status":"Remaining"}},{"type":"Feature","geometry":{"type":"Point","coordinates":[35.03178,32.474645]},"properties":{"name_en":"Wadi 'Ara","name_ar":"وادي عارة","slug":"wadi-ara","type":"Village","group":"Palestinian","status":"Built over"}},{"type":"Feature","geometry":{"type":"Point","coordinates":[35.170942,32.730176]},"properties":{"name_en":"Waldheim (Umm Al 'Amad)","name_ar":"فالدهايم / ام العمد","slug":"waldheim-umm-al-amad","type":"Templer colony","group":"Palestinian","status":"Built over"}},{"type":"Feature","geometry":{"type":"Point","coordinates":[35.116209,32.649508]},"properties":{"name_en":"Yoqne'am (Moshava)","name_ar":"يوكنيعام","slug":"yoqneam-moshava","type":"Settlement","group":"Jewish","status":"Remaining"}},{"type":"Feature","geometry":{"type":"Point","coordinates":[34.95361,32.572527]},"properties":{"name_en":"Zikhron Ya'aqov","name_ar":"Zikhron Ya'aqov","slug":"zikhron-yaaqov","type":"Settlement","group":"Jewish","status":"Remaining"}},{"type":"Feature","geometry":{"type":"Point","coordinates":[34.921707,31.688995]},"properties":{"name_en":"Ajjur","name_ar":"عجور","slug":"ajjur","type":"Village","group":"Palestinian","status":"Depopulated"}},{"type":"Feature","geometry":{"type":"Point","coordinates":[35.251524,31.396524]},"properties":{"name_en":"Arab al-Jahalin","name_ar":"عرب الجهالين","slug":"arab-al-jahalin-hebron","type":"Community","group":"Palestinian","status":"Remaining"}},{"type":"Feature","geometry":{"type":"Point","coordinates":[35.111101,31.523976]},"properties":{"name_en":"Arab al-Ka'abina","name_ar":"Arab al-Ka'abina","slug":"arab-al-kaabina","type":"Community","group":"Palestinian","status":"Remaining"}},{"type":"Feature","geometry":{"type":"Point","coordinates":[35.164447,31.516087]},"properties":{"name_en":"Bani Na'im","name_ar":"بني نعيم","slug":"bani-naim","type":"City","group":"Palestinian","status":"Remaining"}},{"type":"Feature","geometry":{"type":"Point","coordinates":[34.823305,31.67963]},"properties":{"name_en":"Barqusya","name_ar":"برقوسيا","slug":"barqusya","type":"Village","group":"Palestinian","status":"Depopulated"}},{"type":"Feature","geometry":{"type":"Point","coordinates":[35.029784,31.5964]},"properties":{"name_en":"Bayt Aula","name_ar":"بيت أولا","slug":"bayt-aula","type":"Village","group":"Palestinian","status":"Remaining"}},{"type":"Feature","geometry":{"type":"Point","coordinates":[34.896451,31.606553]},"properties":{"name_en":"Bayt Jibrin","name_ar":"بيت جبرين","slug":"bayt-jibrin","type":"Village","group":"Palestinian","status":"Depopulated"}},{"type":"Feature","geometry":{"type":"Point","coordinates":[35.066634,31.569782]},"properties":{"name_en":"Bayt Kahil","name_ar":"بيت كاحل","slug":"bayt-kahil","type":"Village","group":"Palestinian","status":"Remaining"}},{"type":"Feature","geometry":{"type":"Point","coordinates":[34.994834,31.69665]},"properties":{"name_en":"Bayt Nattif","name_ar":"بيت نتيف","slug":"bayt-nattif","type":"Village","group":"Palestinian","status":"Depopulated"}},{"type":"Feature","geometry":{"type":"Point","coordinates":[35.102368,31.620491]},"properties":{"name_en":"Bayt Ummar","name_ar":"بيت أمر","slug":"bayt-ummar","type":"City","group":"Palestinian","status":"Remaining"}},{"type":"Feature","geometry":{"type":"Point","coordinates":[34.912503,31.536759]},"properties":{"name_en":"al-Dawayima","name_ar":"الدوايمة","slug":"al-dawayima","type":"Village","group":"Palestinian","status":"Built over"}},{"type":"Feature","geometry":{"type":"Point","coordinates":[34.892574,31.672586]},"properties":{"name_en":"Dayr al-Dubban","name_ar":"دير الدبان","slug":"dayr-al-dubban","type":"Village","group":"Palestinian","status":"Depopulated"}},{"type":"Feature","geometry":{"type":"Point","coordinates":[34.922425,31.61574]},"properties":{"name_en":"Dayr Nakhkhas","name_ar":"دير نخاس","slug":"dayr-nakhkhas","type":"Village","group":"Palestinian","status":"Depopulated"}},{"type":"Feature","geometry":{"type":"Point","coordinates":[34.972827,31.411009]},"properties":{"name_en":"al-Dahiriyya","name_ar":"الظاهرية","slug":"al-dahiriyya","type":"City","group":"Palestinian","status":"Remaining"}},{"type":"Feature","geometry":{"type":"Point","coordinates":[35.027717,31.506773]},"properties":{"name_en":"Dura","name_ar":"دورة","slug":"dura","type":"City","group":"Palestinian","status":"Remaining"}},{"type":"Feature","geometry":{"type":"Point","coordinates":[35.109686,31.577969]},"properties":{"name_en":"Halhul","name_ar":"حلحول","slug":"halhul","type":"City","group":"Palestinian","status":"Remaining"}},{"type":"Feature","geometry":{"type":"Point","coordinates":[35.109268,31.524422]},"properties":{"name_en":"Hebron","name_ar":"الخليل","slug":"hebron","type":"City","group":"Palestinian","status":"Remaining"}},{"type":"Feature","geometry":{"type":"Point","coordinates":[34.976313,31.558547]},"properties":{"name_en":"Idna","name_ar":"ادنة","slug":"idna","type":"City","group":"Palestinian","status":"Remaining"}},{"type":"Feature","geometry":{"type":"Point","coordinates":[35.075944,31.675448]},"properties":{"name_en":"al-Jaba'","name_ar":"الجبعة","slug":"al-jaba","type":"Village","group":"Palestinian","status":"Remaining"}},{"type":"Feature","geometry":{"type":"Point","coordinates":[34.979852,31.584267]},"properties":{"name_en":"Khirbat Jamrura","name_ar":"خربة جمرورة","slug":"khirbat-jamrura","type":"Community","group":"Palestinian","status":"Abandoned"}},{"type":"Feature","geometry":{"type":"Point","coordinates":[35.04231,31.614541]},"properties":{"name_en":"Kharas","name_ar":"خراس","slug":"kharas","type":"Village","group":"Palestinian","status":"Remaining"}},{"type":"Feature","geometry":{"type":"Point","coordinates":[34.895145,31.645981]},"properties":{"name_en":"Kudna","name_ar":"كدنا","slug":"kudna","type":"Village","group":"Palestinian","status":"Depopulated"}},{"type":"Feature","geometry":{"type":"Point","coordinates":[34.882858,31.72938]},"properties":{"name_en":"Mughallis","name_ar":"مغلس","slug":"mughallis","type":"Village","group":"Palestinian","status":"Depopulated"}},{"type":"Feature","geometry":{"type":"Point","coordinates":[35.036166,31.607242]},"properties":{"name_en":"Nuba","name_ar":"نوبة","slug":"nuba","type":"Village","group":"Palestinian","status":"Remaining"}},{"type":"Feature","geometry":{"type":"Point","coordinates":[34.853821,31.571213]},"properties":{"name_en":"al-Qubayba","name_ar":"القبيبة","slug":"al-qubayba-hebron","type":"Village","group":"Palestinian","status":"Depopulated"}},{"type":"Feature","geometry":{"type":"Point","coordinates":[34.878344,31.665745]},"properties":{"name_en":"Ra'na","name_ar":"رعنا","slug":"rana","type":"Village","group":"Palestinian","status":"Depopulated"}},{"type":"Feature","geometry":{"type":"Point","coordinates":[35.076779,31.467885]},"properties":{"name_en":"al-Rihiya","name_ar":"الريحية","slug":"al-rihiya","type":"Village","group":"Palestinian","status":"Remaining"}},{"type":"Feature","geometry":{"type":"Point","coordinates":[35.143984,31.584921]},"properties":{"name_en":"Sa'eer","name_ar":"سعير","slug":"saeer","type":"City","group":"Palestinian","status":"Remaining"}},{"type":"Feature","geometry":{"type":"Point","coordinates":[35.066582,31.399333]},"properties":{"name_en":"al-Samu'","name_ar":"السموع","slug":"al-samu","type":"City","group":"Palestinian","status":"Remaining"}},{"type":"Feature","geometry":{"type":"Point","coordinates":[35.150008,31.578309]},"properties":{"name_en":"al-Shuyukh","name_ar":"الشيوخ","slug":"al-shuyukh","type":"Village","group":"Palestinian","status":"Remaining"}},{"type":"Feature","geometry":{"type":"Point","coordinates":[35.063605,31.651949]},"properties":{"name_en":"Surif","name_ar":"صوريف","slug":"surif","type":"City","group":"Palestinian","status":"Remaining"}},{"type":"Feature","geometry":{"type":"Point","coordinates":[35.047291,31.53858]},"properties":{"name_en":"Taffuh","name_ar":"تفوح","slug":"taffuh","type":"Village","group":"Palestinian","status":"Remaining"}},{"type":"Feature","geometry":{"type":"Point","coordinates":[34.846173,31.702977]},"properties":{"name_en":"Tall al-Safi","name_ar":"تل الصافي","slug":"tall-al-safi","type":"Village","group":"Palestinian","status":"Depopulated"}},{"type":"Feature","geometry":{"type":"Point","coordinates":[35.012363,31.574787]},"properties":{"name_en":"Tarqumiya","name_ar":"ترقومية","slug":"tarqumiya","type":"Village","group":"Palestinian","status":"Remaining"}},{"type":"Feature","geometry":{"type":"Point","coordinates":[34.86025,31.663084]},"properties":{"name_en":"Zikrin","name_ar":"زكرين","slug":"zikrin","type":"Village","group":"Palestinian","status":"Depopulated"}},{"type":"Feature","geometry":{"type":"Point","coordinates":[34.969118,31.63579]},"properties":{"name_en":"Khirbat Umm Burj","name_ar":"خربة أم برج","slug":"khirbat-umm-burj","type":"Village","group":"Palestinian","status":"Depopulated"}},{"type":"Feature","geometry":{"type":"Point","coordinates":[35.089766,31.446481]},"properties":{"name_en":"Yatta","name_ar":"يطة","slug":"yatta","type":"City","group":"Palestinian","status":"Remaining"}},{"type":"Feature","geometry":{"type":"Point","coordinates":[34.945948,31.709221]},"properties":{"name_en":"Zakariyya","name_ar":"زكريا","slug":"zakariyya","type":"Village","group":"Palestinian","status":"Built over"}},{"type":"Feature","geometry":{"type":"Point","coordinates":[34.824649,31.641011]},"properties":{"name_en":"Zayta","name_ar":"زيتا","slug":"zayta-hebron","type":"Village","group":"Palestinian","status":"Depopulated"}},{"type":"Feature","geometry":{"type":"Point","coordinates":[34.889784,32.031372]},"properties":{"name_en":"al-'Abbasiyya","name_ar":"العباسية","slug":"al-yahudiya-al-abisiyya","type":"Village","group":"Mixed","status":"Built over"}},{"type":"Feature","geometry":{"type":"Point","coordinates":[34.865227,32.13546]},"properties":{"name_en":"Abu Kishk","name_ar":"أبو كشك","slug":"abu-kishk","type":"Village","group":"Palestinian","status":"Built over"}},{"type":"Feature","geometry":{"type":"Point","coordinates":[34.743375,32.026429]},"properties":{"name_en":"Bat Yam","name_ar":"بات يام","slug":"bat-yam","type":"City","group":"Jewish","status":"Remaining"}},{"type":"Feature","geometry":{"type":"Point","coordinates":[34.828872,32.003157]},"properties":{"name_en":"Bayt Dajan","name_ar":"بيت دجن","slug":"bayt-dajan-jaffa","type":"Village","group":"Palestinian","status":"Built over"}},{"type":"Feature","geometry":{"type":"Point","coordinates":[34.828989,32.087161]},"properties":{"name_en":"Bene Beraq","name_ar":"بني براق","slug":"bene-beraq","type":"City","group":"Jewish","status":"Remaining"}},{"type":"Feature","geometry":{"type":"Point","coordinates":[34.921552,32.158078]},"properties":{"name_en":"Biyar 'Adas","name_ar":"بيار عدس","slug":"biyar-adas","type":"Village","group":"Palestinian","status":"Built over"}},{"type":"Feature","geometry":{"type":"Point","coordinates":[34.9031,32.086476]},"properties":{"name_en":"Fajja","name_ar":"فجة","slug":"fajja","type":"Village","group":"Mixed","status":"Built over"}},{"type":"Feature","geometry":{"type":"Point","coordinates":[34.882528,32.068652]},"properties":{"name_en":"Gat Rimmon","name_ar":"غت رمون","slug":"gat-rimmon","type":"Settlement","group":"Jewish","status":"Remaining"}},{"type":"Feature","geometry":{"type":"Point","coordinates":[34.80993,32.07143]},"properties":{"name_en":"Giv'atayim","name_ar":"غيفعاتيم","slug":"givatayim","type":"City","group":"Jewish","status":"Remaining"}},{"type":"Feature","geometry":{"type":"Point","coordinates":[34.87483,32.16811]},"properties":{"name_en":"Giv'at Hen","name_ar":"غيفعات حين","slug":"givat-hen","type":"Settlement","group":"Jewish","status":"Remaining"}},{"type":"Feature","geometry":{"type":"Point","coordinates":[34.90126,32.34889]},"properties":{"name_en":"Hadar Am","name_ar":"هدار","slug":"hadar-am","type":"Settlement","group":"Jewish","status":"Remaining"}},{"type":"Feature","geometry":{"type":"Point","coordinates":[34.806491,32.188045]},"properties":{"name_en":"al-Haram","name_ar":"الحرم","slug":"al-haram","type":"Village","group":"Mixed","status":"Built over"}},{"type":"Feature","geometry":{"type":"Point","coordinates":[34.840576,32.16732]},"properties":{"name_en":"Herzliyya","name_ar":"Herzliyya","slug":"herzliyya","type":"City","group":"Jewish","status":"Remaining"}},{"type":"Feature","geometry":{"type":"Point","coordinates":[34.775378,32.02045]},"properties":{"name_en":"Holon","name_ar":"حولون","slug":"holon","type":"City","group":"Jewish","status":"Remaining"}},{"type":"Feature","geometry":{"type":"Point","coordinates":[34.753055,32.054022]},"properties":{"name_en":"Jaffa","name_ar":"يافا","slug":"jaffa","type":"City","group":"Mixed","status":"Appropriated"}},{"type":"Feature","geometry":{"type":"Point","coordinates":[34.811547,32.158905]},"properties":{"name_en":"Ijlil al-Qibliyya","name_ar":"إجليل القبلية","slug":"ijlil-al-qibliyya","type":"Village","group":"Mixed","status":"Depopulated"}},{"type":"Feature","geometry":{"type":"Point","coordinates":[34.813211,32.160502]},"properties":{"name_en":"Ijlil al-Shamaliyya","name_ar":"إجليل الشمالية","slug":"ijlil-al-shamaliyya","type":"Village","group":"Palestinian","status":"Depopulated"}},{"type":"Feature","geometry":{"type":"Point","coordinates":[34.796871,32.091464]},"properties":{"name_en":"al-Jammasin al-Gharbi","name_ar":"الجماسين الغربي","slug":"al-jammasin-al-gharbi","type":"Village","group":"Palestinian","status":"Built over"}},{"type":"Feature","geometry":{"type":"Point","coordinates":[34.830804,32.097793]},"properties":{"name_en":"al-Jammasin al-Sharqi","name_ar":"الجماسين الشرقي","slug":"al-jammasin-al-sharqi","type":"Village","group":"Palestinian","status":"Built over"}},{"type":"Feature","geometry":{"type":"Point","coordinates":[34.808425,32.095865]},"properties":{"name_en":"Jarisha","name_ar":"جريشة","slug":"jarisha","type":"Village","group":"Palestinian","status":"Depopulated"}},{"type":"Feature","geometry":{"type":"Point","coordinates":[34.86831,32.024481]},"properties":{"name_en":"Kafr 'Ana","name_ar":"كفر عانة","slug":"kafr-ana","type":"Village","group":"Mixed","status":"Built over"}},{"type":"Feature","geometry":{"type":"Point","coordinates":[34.89412,32.16807]},"properties":{"name_en":"Kefar Malal","name_ar":"كفار ملال","slug":"kefar-malal","type":"Settlement","group":"Jewish","status":"Remaining"}},{"type":"Feature","geometry":{"type":"Point","coordinates":[34.911326,32.17477]},"properties":{"name_en":"Kefar Sava","name_ar":"كفر سابا","slug":"kefar-sava","type":"City","group":"Jewish","status":"Remaining"}},{"type":"Feature","geometry":{"type":"Point","coordinates":[34.827151,32.036563]},"properties":{"name_en":"al-Khayriyya","name_ar":"الخيرية","slug":"al-khayriyya","type":"Village","group":"Palestinian","status":"Depopulated"}},{"type":"Feature","geometry":{"type":"Point","coordinates":[34.782261,32.085431]},"properties":{"name_en":"al-Mas'udiyya","name_ar":"المسعودية","slug":"al-masudiyya","type":"Village","group":"Palestinian","status":"Built over"}},{"type":"Feature","geometry":{"type":"Point","coordinates":[34.783226,32.031891]},"properties":{"name_en":"Miqve Yisrael","name_ar":"مكفي يسرائيل","slug":"miqwe-yisrael","type":"Settlement","group":"Jewish","status":"Remaining"}},{"type":"Feature","geometry":{"type":"Point","coordinates":[34.915585,32.111954]},"properties":{"name_en":"al-Mirr","name_ar":"المر","slug":"al-mirr","type":"Village","group":"Palestinian","status":"Depopulated"}},{"type":"Feature","geometry":{"type":"Point","coordinates":[34.924031,32.120706]},"properties":{"name_en":"al-Muwaylih","name_ar":"المويلح","slug":"al-muwaylih","type":"Village","group":"Palestinian","status":"Depopulated"}},{"type":"Feature","geometry":{"type":"Point","coordinates":[34.883294,32.090209]},"properties":{"name_en":"Petah Tiqva","name_ar":"بتح تيقوا","slug":"petah-tiqwa","type":"City","group":"Jewish","status":"Remaining"}},{"type":"Feature","geometry":{"type":"Point","coordinates":[34.872458,32.181078]},"properties":{"name_en":"Ra'anana","name_ar":"رعنانة","slug":"raanana","type":"City","group":"Jewish","status":"Remaining"}},{"type":"Feature","geometry":{"type":"Point","coordinates":[34.843888,32.14424]},"properties":{"name_en":"Ramat HaSharon","name_ar":"Ramat HaSharon","slug":"ramat-hasharon","type":"City","group":"Jewish","status":"Remaining"}},{"type":"Feature","geometry":{"type":"Point","coordinates":[34.811683,32.082234]},"properties":{"name_en":"Ramat Gan","name_ar":"رمات غان","slug":"ramat-gan","type":"City","group":"Jewish","status":"Remaining"}},{"type":"Feature","geometry":{"type":"Point","coordinates":[34.921465,32.044052]},"properties":{"name_en":"Rantiya","name_ar":"رنتية","slug":"rantiya","type":"Village","group":"Palestinian","status":"Built over"}},{"type":"Feature","geometry":{"type":"Point","coordinates":[34.82337,32.19887]},"properties":{"name_en":"Rishpon","name_ar":"رشبون","slug":"rishpon","type":"Settlement","group":"Jewish","status":"Remaining"}},{"type":"Feature","geometry":{"type":"Point","coordinates":[34.849656,31.99335]},"properties":{"name_en":"al-Safiriyya","name_ar":"السافرية","slug":"al-safiriyya","type":"Village","group":"Palestinian","status":"Built over"}},{"type":"Feature","geometry":{"type":"Point","coordinates":[34.80548,32.050026]},"properties":{"name_en":"Salama","name_ar":"سلمة","slug":"salama-jaffa","type":"Village","group":"Palestinian","status":"Built over"}},{"type":"Feature","geometry":{"type":"Point","coordinates":[34.842864,32.028979]},"properties":{"name_en":"Saqiya","name_ar":"ساقية","slug":"saqiya","type":"Village","group":"Palestinian","status":"Built over"}},{"type":"Feature","geometry":{"type":"Point","coordinates":[34.78834,32.073563]},"properties":{"name_en":"Sarona","name_ar":"سارونة","slug":"sarona","type":"Neighbourhood","group":"Jewish","status":"Appropriated"}},{"type":"Feature","geometry":{"type":"Point","coordinates":[34.847719,32.116538]},"properties":{"name_en":"al-Sawalima","name_ar":"السوالمة","slug":"al-sawalima","type":"Village","group":"Palestinian","status":"Depopulated"}},{"type":"Feature","geometry":{"type":"Point","coordinates":[34.824361,32.218205]},"properties":{"name_en":"Shefayim","name_ar":"شفاييم","slug":"shefayim","type":"Settlement","group":"Jewish","status":"Remaining"}},{"type":"Feature","geometry":{"type":"Point","coordinates":[34.804773,32.108147]},"properties":{"name_en":"al-Shaykh Muwannis","name_ar":"الشيخ مونس","slug":"al-shaykh-muwannis","type":"Village","group":"Palestinian","status":"Built over"}},{"type":"Feature","geometry":{"type":"Point","coordinates":[34.768634,32.072886]},"properties":{"name_en":"Tel Aviv","name_ar":"تل أبيب","slug":"tel-aviv","type":"City","group":"Mixed","status":"Remaining"}},{"type":"Feature","geometry":{"type":"Point","coordinates":[34.911808,32.023284]},"properties":{"name_en":"Wilhelma","name_ar":"ولهلما","slug":"wilhelma","type":"Templer colony","group":"Palestinian","status":"Built over"}},{"type":"Feature","geometry":{"type":"Point","coordinates":[34.898273,32.146123]},"properties":{"name_en":"Yarqona","name_ar":"يرقونا","slug":"yarqona","type":"Settlement","group":"Jewish","status":"Remaining"}},{"type":"Feature","geometry":{"type":"Point","coordinates":[34.804632,32.026368]},"properties":{"name_en":"Yazur","name_ar":"يازور","slug":"yazur","type":"Village","group":"Palestinian","status":"Built over"}},{"type":"Feature","geometry":{"type":"Point","coordinates":[35.265605,31.761596]},"properties":{"name_en":"Abu Dis","name_ar":"أبو ديس","slug":"abu-dis","type":"City","group":"Palestinian","status":"Remaining"}},{"type":"Feature","geometry":{"type":"Point","coordinates":[35.061583,31.723069]},"properties":{"name_en":"Allar","name_ar":"علار","slug":"allar","type":"Village","group":"Palestinian","status":"Depopulated"}},{"type":"Feature","geometry":{"type":"Point","coordinates":[35.261927,31.813593]},"properties":{"name_en":"Anata","name_ar":"عناتا","slug":"anata","type":"Village","group":"Palestinian","status":"Remaining"}},{"type":"Feature","geometry":{"type":"Point","coordinates":[35.082246,31.758603]},"properties":{"name_en":"Aqqur","name_ar":"عقور","slug":"aqqur","type":"Village","group":"Palestinian","status":"Depopulated"}},{"type":"Feature","geometry":{"type":"Point","coordinates":[35.328016,31.645179]},"properties":{"name_en":"Arab al-Ta'amira","name_ar":"عرب التعامرة","slug":"arab-al-taamira","type":"Community","group":"Palestinian","status":"Remaining"}},{"type":"Feature","geometry":{"type":"Point","coordinates":[35.296205,31.719609]},"properties":{"name_en":"Arab Ibn 'Ubeid","name_ar":"عرب ابن عبيد","slug":"arab-ibn-ubeid-al-ubeidiya","type":"Village","group":"Palestinian","status":"Remaining"}},{"type":"Feature","geometry":{"type":"Point","coordinates":[35.347361,31.752917]},"properties":{"name_en":"Arab al-Rashayida","name_ar":"Arab al-Rashayida","slug":"arab-al-rashayida","type":"Community","group":"Palestinian","status":"Remaining"}},{"type":"Feature","geometry":{"type":"Point","coordinates":[35.185524,31.688705]},"properties":{"name_en":"Artas","name_ar":"ارطاس","slug":"artas","type":"Village","group":"Palestinian","status":"Remaining"}},{"type":"Feature","geometry":{"type":"Point","coordinates":[35.002295,31.767941]},"properties":{"name_en":"Artuf","name_ar":"عرتوف","slug":"artuf","type":"Village","group":"Palestinian","status":"Built over"}},{"type":"Feature","geometry":{"type":"Point","coordinates":[35.216002,31.865208]},"properties":{"name_en":"Atarot","name_ar":"عطروت","slug":"atarot-jerusalem","type":"Settlement","group":"Jewish","status":"Depopulated"}},{"type":"Feature","geometry":{"type":"Point","coordinates":[35.466485,31.960909]},"properties":{"name_en":"al-Auja","name_ar":"العوجة","slug":"al-auja-jerusalem","type":"Community","group":"Palestinian","status":"Remaining"}},{"type":"Feature","geometry":{"type":"Point","coordinates":[35.162011,31.767085]},"properties":{"name_en":"Ayn Karim","name_ar":"عين كارم","slug":"ayn-karim","type":"Neighbourhood","group":"Jewish","status":"Appropriated"}},{"type":"Feature","geometry":{"type":"Point","coordinates":[35.140346,31.728677]},"properties":{"name_en":"Battir","name_ar":"بتير","slug":"battir","type":"Village","group":"Palestinian","status":"Remaining"}},{"type":"Feature","geometry":{"type":"Point","coordinates":[35.12921,31.858998]},"properties":{"name_en":"Bayt Duqqu","name_ar":"بيت دقو","slug":"bayt-duqqu","type":"Village","group":"Palestinian","status":"Remaining"}},{"type":"Feature","geometry":{"type":"Point","coordinates":[35.154096,31.623802]},"properties":{"name_en":"Bayt Fajjar","name_ar":"بيت فجار","slug":"bayt-fajjar","type":"Village","group":"Palestinian","status":"Remaining"}},{"type":"Feature","geometry":{"type":"Point","coordinates":[35.207668,31.828954]},"properties":{"name_en":"Bayt Hanina","name_ar":"بيت حنينا","slug":"bayt-hanina","type":"Village","group":"Palestinian","status":"Remaining"}},{"type":"Feature","geometry":{"type":"Point","coordinates":[35.151469,31.847472]},"properties":{"name_en":"Bayt Ijza","name_ar":"بيت اجزا","slug":"bayt-ijza","type":"Village","group":"Palestinian","status":"Remaining"}},{"type":"Feature","geometry":{"type":"Point","coordinates":[35.180791,31.817492]},"properties":{"name_en":"Bayt Iksa","name_ar":"بيت اكسا","slug":"bayt-iksa","type":"Village","group":"Palestinian","status":"Remaining"}},{"type":"Feature","geometry":{"type":"Point","coordinates":[35.11088,31.85236]},"properties":{"name_en":"Bayt Inan","name_ar":"بيت اعنان","slug":"bayt-inan","type":"Village","group":"Palestinian","status":"Remaining"}},{"type":"Feature","geometry":{"type":"Point","coordinates":[35.052632,31.734183]},"properties":{"name_en":"Bayt 'Itab","name_ar":"بيت عطاب","slug":"bayt-itab","type":"Village","group":"Palestinian","status":"Depopulated"}},{"type":"Feature","geometry":{"type":"Point","coordinates":[35.187648,31.716194]},"properties":{"name_en":"Bayt Jala","name_ar":"بيت جالا","slug":"bayt-jala","type":"City","group":"Palestinian","status":"Remaining"}},{"type":"Feature","geometry":{"type":"Point","coordinates":[34.976342,31.724936]},"properties":{"name_en":"Bayt al-Jimal","name_ar":"بيت جمال","slug":"bayt-al-jimal","type":"Monastery","group":"Palestinian","status":"Remaining"}},{"type":"Feature","geometry":{"type":"Point","coordinates":[35.034346,31.794686]},"properties":{"name_en":"Bayt Mahsir","name_ar":"بيت محسير","slug":"bayt-mahsir","type":"Village","group":"Palestinian","status":"Built over"}},{"type":"Feature","geometry":{"type":"Point","coordinates":[35.125267,31.8033]},"properties":{"name_en":"Bayt Naqquba","name_ar":"بيت نقوبا","slug":"bayt-naqquba","type":"Village","group":"Palestinian","status":"Built over"}},{"type":"Feature","geometry":{"type":"Point","coordinates":[35.200816,31.745419]},"properties":{"name_en":"Bayt Safafa","name_ar":"بيت صفافا","slug":"bayt-safafa","type":"Amalgamated","group":"Palestinian","status":"Remaining"}},{"type":"Feature","geometry":{"type":"Point","coordinates":[35.21767,31.702917]},"properties":{"name_en":"Bayt Sahur","name_ar":"بيت ساحور","slug":"bayt-sahur","type":"City","group":"Palestinian","status":"Remaining"}},{"type":"Feature","geometry":{"type":"Point","coordinates":[35.149484,31.823912]},"properties":{"name_en":"Bayt Suriq","name_ar":"بيت سوريك","slug":"bayt-suriq","type":"Village","group":"Palestinian","status":"Remaining"}},{"type":"Feature","geometry":{"type":"Point","coordinates":[35.07359,31.822213]},"properties":{"name_en":"Bayt Thul","name_ar":"بيت ثول","slug":"bayt-thul","type":"Village","group":"Palestinian","status":"Depopulated"}},